name,latitude,longitude,inf_type
Simferopol,44.9472063,34.1004577,City/Town
Aeroflotskyi,45.0210501,34.0015874,City/Town
Hresivskyi,45.0077631,34.0290536,City/Town
Bitumne,45.0194876,34.0445968,City/Town
Komsomolske,45.021625,34.0190764,City/Town
Ahrarne,45.0144464,34.0555476,City/Town
Alushta,44.6753386,34.4070688,City/Town
Partenit,44.5810487,34.3405625,City/Town
Izobilne,44.7096865,34.3494971,City/Town
Verkhnia Kutuzovka,44.7227729,34.3690926,City/Town
Nyzhnia Kutuzovka,44.7076911,34.3808642,City/Town
Rozovyi,44.696318,34.3162807,City/Town
Luchyste,44.7355318,34.4020905,City/Town
Lavanda,44.7463759,34.3699509,City/Town
Semydviria,44.7174445,34.4665419,City/Town
Malyi Maiak,44.6131127,34.3606898,City/Town
Bondarenkove,44.6089051,34.3736843,City/Town
Vynohradnyi,44.6406814,34.3678266,City/Town
Zaprudne,44.5987734,34.3245045,City/Town
Kyparysne,44.6009154,34.3506443,City/Town
Lavrove,44.5744706,34.3219526,City/Town
Lazurne,44.6343537,34.389012,City/Town
Nyzhnie Zaprudne,44.5877667,34.3185723,City/Town
Pushkine,44.5946709,34.3450211,City/Town
Utos,44.5972092,34.3702731,City/Town
Chaika,44.6166609,34.3779466,City/Town
Malorichenske,44.7581433,34.5562109,City/Town
Heneralske,44.8001408,34.4829995,City/Town
Rybache,44.7716464,34.595896,City/Town
Soniachnohirske,44.7493917,34.5396796,City/Town
Pryvitne,44.8224082,34.6780544,City/Town
Zelenohiria,44.8708605,34.7196665,City/Town
Dzhankoi,45.7131668,34.3941773,City/Town
Yevpatoriia,45.2033497,33.3503714,City/Town
Zaozerne,45.1557069,33.2740763,City/Town
Myrnyi,45.3065807,33.0346511,City/Town
Novoozerne,45.3874526,33.1346868,City/Town
Kerch,45.3208954,36.4451514,City/Town
Krasnoperekopsk,45.9580695,33.8009867,City/Town
Saky,45.1268072,33.5480867,City/Town
Armiansk,46.1074771,33.6947155,City/Town
Suvorove,46.0878929,33.6871441,City/Town
Voloshyne,46.1127913,33.6435721,City/Town
Perekop,46.1602783,33.6901505,City/Town
Feodosiia,45.0333375,35.3629098,City/Town
Kurortne,44.912023,35.183794,City/Town
Ordzhonikidze,44.993663,35.3534692,City/Town
Koktebel,44.9604771,35.2395074,City/Town
Nanikove,45.0002524,35.2209154,City/Town
Prymorskyi,45.1214431,35.4859821,City/Town
Shchebetovka,44.9381325,35.163705,City/Town
Krasnokamianka,44.9246084,35.0735606,City/Town
Berehove,45.0983103,35.4370199,City/Town
Stepove,45.0941794,35.380697,City/Town
Nasypne,45.0482399,35.2913867,City/Town
Blyzhnie,45.0562244,35.3307344,City/Town
Vynohradne,45.0287553,35.3233044,City/Town
Pidhirne,45.0148607,35.2805263,City/Town
Pionerske,45.0267857,35.3423687,City/Town
Soniachne,45.0468298,35.3437056,City/Town
Yuzhne,44.9995668,35.2862537,City/Town
Sudak,44.8480888,34.9792074,City/Town
Novyi Svit,44.82814,34.9118046,City/Town
Vesele,44.8562484,34.8795316,City/Town
Hrushivka,45.0176567,34.9730147,City/Town
Perevalivka,44.9766165,34.9828693,City/Town
Kholodivka,45.050547,34.9927455,City/Town
Dachne,44.8856983,34.9843704,City/Town
Lisne,44.9422553,34.9521496,City/Town
Mizhrichchia,44.8752238,34.8495152,City/Town
Voron,44.8880574,34.8170581,City/Town
Morske,44.8301641,34.803715,City/Town
Hromivka,44.8764927,34.7911813,City/Town
Soniachna Dolyna,44.8733225,35.1002754,City/Town
Bahativka,44.8699864,35.060565,City/Town
Myndalne,44.8574381,35.0464406,City/Town
Pryberezhne,44.8560141,35.1317076,City/Town
Yalta,44.5100164,34.1625282,City/Town
Berehove,44.4063253,33.8875219,City/Town
Nikita,44.5109438,34.234158,City/Town
Vynohradne,44.4781399,34.1229074,City/Town
Voskhod,44.5131017,34.2168884,City/Town
Haspra,44.4365074,34.118214,City/Town
Holuba Zatoka,44.4153767,33.9841409,City/Town
Hurzuf,44.5579309,34.3113819,City/Town
Danylivka,44.5204741,34.2585171,City/Town
Liniine,44.5303253,34.2580083,City/Town
Partyzanske,44.5542769,34.2508151,City/Town
Katsiveli,44.3961007,33.9732575,City/Town
Koreiz,44.4303522,34.0768025,City/Town
Krasnokamianka,44.5638037,34.2883395,City/Town
Kurpaty,44.4431931,34.1316255,City/Town
Livadiia,44.4758724,34.1483729,City/Town
Vysokohirne,44.4666839,34.0905712,City/Town
Hirne,44.4701315,34.1345052,City/Town
Kuibysheve,44.4926019,34.1142495,City/Town
Okhotnyche,44.471382,34.0684619,City/Town
Masandra,44.515847,34.1838828,City/Town
Oreanda,44.4609555,34.1416952,City/Town
Vidradne,44.5056821,34.2197202,City/Town
Parkove,44.4076493,33.9086583,City/Town
Ponyzivka,44.3939956,33.9504947,City/Town
Sanatorne,44.3993429,33.816983,City/Town
Simeiz,44.4076319,34.0071284,City/Town
Opolzneve,44.4063497,33.9392547,City/Town
Sovietske,44.5345428,34.1888931,City/Town
Foros,44.3917557,33.7768909,City/Town
Olyva,44.4100058,33.8655071,City/Town
Alupka,44.4208049,34.0461861,City/Town
Bakhchysarai,44.7481787,33.8566262,City/Town
Nauchnyi,44.7252527,34.0122809,City/Town
Kuibysheve,44.6333518,33.8663425,City/Town
Velyke Sadove,44.6394097,33.8281677,City/Town
Vysoke,44.6326301,33.9598617,City/Town
Male Sadove,44.6394827,33.8416477,City/Town
Novoulianivka,44.6069879,33.8652984,City/Town
Tankove,44.6587055,33.8066034,City/Town
Poshtove,44.8362684,33.9586499,City/Town
Zavitne,44.836612,33.9107751,City/Town
Zubakine,44.8646777,33.8910077,City/Town
Kazanky,44.869617,33.9323891,City/Town
Malynivka,44.8414677,34.0073976,City/Town
Novovasylivka,44.846712,33.9187932,City/Town
Novopavlivka,44.8179969,33.9754288,City/Town
Pryiatne Svidannia,44.851203,34.0094897,City/Town
Rostuche,44.858239,33.8875261,City/Town
Samokhvalove,44.8253035,33.9221499,City/Town
Sevastianivka,44.8160926,33.9332726,City/Town
Stalne,44.8724856,33.8737643,City/Town
Topoli,44.8415025,33.9959716,City/Town
Aromatne,44.7996332,33.8667845,City/Town
Viktorivka,44.7852878,33.7974378,City/Town
Malovydne,44.7963764,33.8090624,City/Town
Riepine,44.825502,33.8387242,City/Town
Rozove,44.835479,33.8180906,City/Town
Verkhorichchia,44.6982822,33.9872533,City/Town
Bashtanivka,44.6905942,33.9009142,City/Town
Kudryne,44.7028937,33.9456141,City/Town
Mashyne,44.6982054,33.9173946,City/Town
Peredushchelne,44.7064231,33.8705229,City/Town
Synapne,44.6721507,34.0101486,City/Town
Viline,44.8481327,33.6827489,City/Town
Rozsadne,44.84065,33.6330537,City/Town
Holubynka,44.5952655,33.9138102,City/Town
Aromat,44.5805815,33.937719,City/Town
Bahata Ushchelyna,44.5567621,33.8709211,City/Town
Nyzhnia Holubynka,44.6050338,33.8983467,City/Town
Novopillia,44.5737016,33.9105382,City/Town
Poliana,44.5518156,33.901148,City/Town
Putylivka,44.56944,33.8869864,City/Town
Sokolyne,44.5517732,33.9585857,City/Town
Soniachnosillia,44.6148485,33.9447524,City/Town
Dolynne,44.7542373,33.7777961,City/Town
Novenke,44.7348799,33.8005082,City/Town
Furmanovka,44.7595997,33.744075,City/Town
Zaliznychne,44.7166423,33.8018266,City/Town
Bilokamiane,44.6806019,33.8399425,City/Town
Dachne,44.7158968,33.8233654,City/Town
Mostove,44.7288488,33.8113807,City/Town
Richne,44.7376968,33.7863184,City/Town
Syren,44.704901,33.7995795,City/Town
Turhenievka,44.6979346,33.8312424,City/Town
Zelene,44.5957118,34.0100606,City/Town
Bohatyr,44.5789563,34.007909,City/Town
Mnohorichchia,44.5581379,34.073677,City/Town
Nahirne,44.5764265,33.9922799,City/Town
Plotynne,44.5858475,33.9657147,City/Town
Shchaslyve,44.5744458,34.0696896,City/Town
Kashtany,44.8686183,33.7840702,City/Town
Vidradne,44.8609201,33.7304613,City/Town
Kocherhine,44.8381206,33.7517245,City/Town
Shevchenkove,44.8669107,33.7534921,City/Town
Krasnyi Mak,44.6457507,33.7824359,City/Town
Zalisne,44.622263,33.7859952,City/Town
Kholmivka,44.6575837,33.7545624,City/Town
Khodzha Sala,44.606192,33.7916586,City/Town
Pishchane,44.8428158,33.6086286,City/Town
Berehove,44.9016621,33.6202119,City/Town
Plodove,44.8716647,33.8574004,City/Town
Brianske,44.8685058,33.7953128,City/Town
Hirka,44.8861452,33.8678743,City/Town
Dibrivka,44.9147941,33.8374534,City/Town
Dorozhnie,44.871974,33.8221346,City/Town
Skalyste,44.8078206,33.9759203,City/Town
Hlybokyi Yar,44.7911578,33.9158833,City/Town
Prokhladne,44.7533201,33.9937749,City/Town
Trudoliubivka,44.786195,33.9956609,City/Town
Tabachne,44.9025204,33.6767553,City/Town
Tinyste,44.7427977,33.6689526,City/Town
Aivove,44.736634,33.6456747,City/Town
Krasna Zoria,44.7527436,33.7199651,City/Town
Nekrasovka,44.7480296,33.6925416,City/Town
Suvorove,44.7339563,33.6284969,City/Town
Uhlove,44.8259156,33.5945389,City/Town
Bilohirsk,45.0566357,34.6000416,City/Town
Zuia,45.0540433,34.3176328,City/Town
Balanove,45.0024804,34.3291511,City/Town
Barabanove,44.9807765,34.3222317,City/Town
Verkhni Orishnyky,45.0094062,34.2918794,City/Town
Volodymyrivka,45.1133113,34.2968831,City/Town
Lytvynenkove,45.0817079,34.3103717,City/Town
Nyzhni Orishnyky,45.0364885,34.2974065,City/Town
Petrove,44.9877632,34.3035502,City/Town
Ukrainka,45.1302903,34.2788039,City/Town
Aromatne,45.036692,34.3994148,City/Town
Krasnohirske,45.0031086,34.3462344,City/Town
Kurortne,44.9943344,34.3626759,City/Town
Bahate,45.0280945,34.7669909,City/Town
Horlynka,45.0097721,34.7511512,City/Town
Krasna Sloboda,44.9848495,34.7423552,City/Town
Melekhove,45.0380886,34.7848662,City/Town
Povorotne,44.9484821,34.7230985,City/Town
Ruske,45.0198126,34.7906187,City/Town
Cheremysivka,45.0146808,34.7358081,City/Town
Vasylivka,45.1385844,34.7224428,City/Town
Malynivka,45.1314603,34.738086,City/Town
Nekrasove,45.0936379,34.7729296,City/Town
Pavlivka,45.1783069,34.7146546,City/Town
Prolom,45.1093324,34.7109535,City/Town
Sieverne,45.1573551,34.729873,City/Town
Vyshenne,45.1454445,34.5970697,City/Town
Bila Skelia,45.0916646,34.6241228,City/Town
Myronivka,45.1353682,34.5704671,City/Town
Zelenohirske,45.0085281,34.4673334,City/Town
Balky,44.9943064,34.4537512,City/Town
Mizhhiria,44.9886812,34.4035549,City/Town
Novohryhorivka,45.0217459,34.4867438,City/Town
Novoklenove,45.0083294,34.4975538,City/Town
Ovrazhky,44.9675187,34.4373687,City/Town
Oleksandrivka,45.024003,34.5297277,City/Town
Pasichne,44.9885868,34.4225179,City/Town
Pcholyne,44.9344904,34.5438634,City/Town
Yakovlivka,44.9857682,34.4592518,City/Town
Zemlianychne,44.9745292,34.8377863,City/Town
Olenivka,44.9891774,34.829134,City/Town
Opytne,44.9986389,34.9006321,City/Town
Radisne,44.9963663,34.8440758,City/Town
Rodnyky,44.9948614,34.7985079,City/Town
Synokamianka,44.9715487,34.7794205,City/Town
Uchebne,44.9987786,34.880866,City/Town
Zybyny,45.2333039,34.6531205,City/Town
Melnyky,45.1942017,34.6173635,City/Town
Krynychne,45.0245216,34.609982,City/Town
Aleksieievka,44.953242,34.6624872,City/Town
Holovanivka,44.9756465,34.6333061,City/Town
Karasivka,44.9957,34.6052705,City/Town
Kyrpychne,45.024511,34.6353372,City/Town
Krasnoselivka,44.9291698,34.633746,City/Town
Yabluchne,45.0739212,34.60718,City/Town
Krymska Roza,45.0576087,34.3598374,City/Town
Vyshneve,45.0278145,34.3344691,City/Town
Kurske,45.0234583,34.9336444,City/Town
Topolivka,45.0097218,34.8782302,City/Town
Melnychne,45.19859,34.4198828,City/Town
Udarne,45.1987474,34.4706867,City/Town
Michurinske,45.0732959,34.7092967,City/Town
Lichebne,45.0503653,34.7481698,City/Town
Muromske,45.0917646,34.849053,City/Town
Dyvne,45.0528534,34.8350328,City/Town
Kryvtsove,45.0723174,34.8576845,City/Town
Sinne,45.0652307,34.8271468,City/Town
Khlibne,45.1243823,34.8439339,City/Town
Novozhylivka,45.1627079,34.2237683,City/Town
Annivka,45.2606449,34.3020341,City/Town
Novooleksandrivka,45.1915432,34.2841596,City/Town
Turhenieve,45.226182,34.2714345,City/Town
Rusakivka,45.1220442,34.473166,City/Town
Luhove,45.1491781,34.4921422,City/Town
Tsvitochne,45.0964233,34.3842096,City/Town
Dolynivka,45.137953,34.3838884,City/Town
Chornopillia,45.0447654,34.6367554,City/Town
Dozorne,45.0229442,34.7009259,City/Town
Kyzylivka,45.0013314,34.6766122,City/Town
Ulianovka,45.0024842,34.6538856,City/Town
Azovske,45.5844554,34.5709688,City/Town
Vilne,45.5655842,34.303698,City/Town
Yermakove,45.8511282,34.4868573,City/Town
Vitvyste,45.7902791,34.4194497,City/Town
Kopani,45.8478685,34.4633949,City/Town
Ostrovske,45.7650012,34.4283639,City/Town
Prydorozhnie,45.7916172,34.4376357,City/Town
Solone Ozero,45.8824665,34.4488214,City/Town
Stovpove,45.8254861,34.4649758,City/Town
Zavit-Leninskyi,45.8633258,34.3914798,City/Town
Zelenyi Yar,45.9001136,34.3510957,City/Town
Martynivka,45.8760009,34.3327657,City/Town
Milkovodne,45.8811606,34.4199335,City/Town
Pushkine,45.8446891,34.3869879,City/Town
Solontseve,45.8957358,34.2735353,City/Town
Zarichne,45.7370043,34.4808782,City/Town
Armiiske,45.7664635,34.4794797,City/Town
Bolotne,45.7334542,34.4553915,City/Town
Mytiuryne,45.7765474,34.518981,City/Town
Nyzynne,45.7717662,34.4980253,City/Town
Perepilkyne,45.7408476,34.5637756,City/Town
Sumizhne,45.7284468,34.5486289,City/Town
Izumrudne,45.7390495,34.4135607,City/Town
Dmytrivka,45.6965961,34.3564068,City/Town
Kalynivka,45.7488543,34.3317804,City/Town
Michurinivka,45.6942405,34.3685592,City/Town
Novostepove,45.6647025,34.3864748,City/Town
Ovocheve,45.7571001,34.3375854,City/Town
Kindratove,45.6327391,34.4756569,City/Town
Dorozhnie,45.6576276,34.4491352,City/Town
Rubynivka,45.5812107,34.4496986,City/Town
Sovietske,45.5695924,34.4932614,City/Town
Krymka,45.7061203,34.1883817,City/Town
Lobanove,45.7738413,34.2489841,City/Town
Zhylyne,45.762521,34.2593678,City/Town
Marine,45.7287512,34.2687841,City/Town
Ordenonosne,45.7341402,34.2946743,City/Town
Yasne,45.7743107,34.2667667,City/Town
Luhanske,45.804047,34.2344732,City/Town
Kovylne,45.7954728,34.2815403,City/Town
Probudzhennia,45.8310931,34.2472906,City/Town
Tutove,45.8287994,34.2012141,City/Town
Udarne,45.7849975,34.2657586,City/Town
Maiske,45.5902255,34.5534833,City/Town
Blyzhnie,45.5737983,34.5713606,City/Town
Laryne,45.550175,34.526423,City/Town
Oktiabr,45.6309078,34.5549811,City/Town
Polove,45.6121793,34.4964448,City/Town
Maslove,45.7919387,34.3672038,City/Town
Komsomolske,45.7758397,34.3947387,City/Town
Subotnyk,45.8274596,34.3956711,City/Town
Medvedivka,45.8815612,34.5522429,City/Town
Peredmistne,45.9449434,34.6185988,City/Town
Turhenieve,45.8873644,34.579438,City/Town
Myrnivka,45.6882131,34.3085135,City/Town
Dniprovka,45.7147339,34.3625569,City/Town
Kostiantynivka,45.6747811,34.3684063,City/Town
Rysakove,45.6558369,34.325617,City/Town
Tymofiivka,45.6632499,34.3624199,City/Town
Novokrymske,45.7783735,34.154147,City/Town
Istochne,45.8207734,34.1324551,City/Town
Pavlivka,45.7408532,34.1559212,City/Town
Pakharivka,45.8339329,34.1676797,City/Town
Vypasne,45.8771946,34.1797243,City/Town
Pobiedne,45.71277,34.4468327,City/Town
Nove Zhyttia,45.6641069,34.4978647,City/Town
Tarasivka,45.6744886,34.4489694,City/Town
Prostorne,45.6550972,34.6986336,City/Town
Antonivka,45.6960927,34.7765201,City/Town
Aprelivka,45.6884063,34.7442225,City/Town
Borodino,45.6398499,34.6789257,City/Town
Nyzhni Otrozhky,45.6643,34.6575696,City/Town
Slovianske,45.6851809,34.691387,City/Town
Stefanivka,45.7087523,34.7933404,City/Town
Rozkishne,45.6512816,34.1257627,City/Town
Zernove,45.6299079,34.1403178,City/Town
Roshchyne,45.607117,34.3792192,City/Town
Blyzhnohorodske,45.63796,34.3798629,City/Town
Krasnodolne,45.5795153,34.3621297,City/Town
Ozerne,45.650758,34.3921521,City/Town
Siernovodske,45.5796369,34.384816,City/Town
Svitle,45.6338611,34.6601405,City/Town
Blahodatne,45.6769384,34.771574,City/Town
Stalne,45.7055861,34.5614592,City/Town
Mnohovodne,45.7293626,34.5860927,City/Town
Novokostiantynivka,45.7004465,34.6330372,City/Town
Novopavlivka,45.6836544,34.6119166,City/Town
Novofedorivka,45.6653401,34.634827,City/Town
Ozerky,45.7024755,34.5426999,City/Town
Prozrachne,45.7358042,34.6565758,City/Town
Ridne,45.7100608,34.6208701,City/Town
Tabachne,45.6124759,34.6123643,City/Town
Novosiltseve,45.591286,34.6710935,City/Town
Fedorivka,45.5804923,34.6045596,City/Town
Khlibne,45.6441034,34.6082463,City/Town
Tsilynne,45.9051163,34.1794424,City/Town
Kolosky,45.8734634,34.2384437,City/Town
Tomashivka,45.9377143,34.1140904,City/Town
Chaikyne,45.8114698,34.5935089,City/Town
Mysove,45.8667979,34.701402,City/Town
Yarke,45.6927162,34.26495,City/Town
Yastrubtsi,45.6595784,34.1978258,City/Town
Yarke Pole,45.6116018,34.3174241,City/Town
Arbuzivka,45.6269322,34.3319313,City/Town
Vesele,45.5961431,34.3198462,City/Town
Vidradne,45.6075487,34.340583,City/Town
Dibrivka,45.5672795,34.3219126,City/Town
Nakhidka,45.607089,34.2767852,City/Town
Slovianka,45.6214186,34.2643081,City/Town
Timiriazieve,45.60645,34.3552974,City/Town
Yasnopolianske,45.9437887,34.3489325,City/Town
Volodyne,45.9385158,34.2860119,City/Town
Riumshyne,45.9695108,34.3190348,City/Town
Staryi Krym,45.0324119,35.0996126,City/Town
Kirovske,45.2326629,35.204246,City/Town
Abrykosivka,45.105476,35.1009772,City/Town
Babenkove,45.0977779,35.1285839,City/Town
Krynychky,45.0716542,35.1011245,City/Town
Matrosivka,45.1166638,35.1417481,City/Town
Vladyslavivka,45.1643851,35.3778736,City/Town
Vuzlove,45.1270435,35.4002655,City/Town
Zhuravky,45.1261765,35.2116377,City/Town
Vydne,45.0955503,35.2446318,City/Town
Makivske,45.1137797,35.2105414,City/Town
Novopokrovka,45.16985,35.2599504,City/Town
Tutivka,45.1122594,35.1991385,City/Town
Zolote Pole,45.1346783,34.9956206,City/Town
Vidrodzhennia,45.1722546,35.0317513,City/Town
Lhovske,45.0961712,34.9542041,City/Town
Dobroliubovka,45.0909642,34.8782527,City/Town
Dolynne,45.0602352,34.9272249,City/Town
Prudy,45.1248813,34.8954363,City/Town
Partyzany,45.1380514,35.1505788,City/Town
Spasivka,45.137348,35.106939,City/Town
Pervomaiske,45.0628026,35.1665611,City/Town
Vidvazhne,45.033456,35.2179378,City/Town
Zhemchuzhyna Krymu,45.0983078,35.1879351,City/Town
Izobilne,45.1097021,35.204259,City/Town
Iziumivka,45.0451676,35.139481,City/Town
Kliuchove,45.0472767,35.2026091,City/Town
Sadove,45.0933034,35.1972603,City/Town
Pryvitne,45.1184781,35.0588131,City/Town
Aivazovske,45.1089334,35.0760363,City/Town
Synytsyne,45.2381831,35.2480752,City/Town
Vasylkove,45.2073994,35.3191825,City/Town
Krasnivka,45.2464441,35.3019668,City/Town
Tokarieve,45.2791171,35.1493379,City/Town
Shubyne,45.2757891,35.2116673,City/Town
Yarke Pole,45.211432,35.199562,City/Town
Krasnosilske,45.1846991,35.1921152,City/Town
Novofedorivka,45.2937585,35.0612562,City/Town
Orikhivka,45.2652839,35.0996054,City/Town
Sofiivka,45.273275,35.1247449,City/Town
Trudoliubivka,45.2158784,35.1527616,City/Town
Krasnohvardiiske,45.4869963,34.2911292,City/Town
Vydne,45.5024348,34.3344783,City/Town
Oktiabrske,45.2931738,34.1289455,City/Town
Oleksandrivka,45.5771716,34.0943653,City/Town
Krasnodarka,45.6084295,34.0851951,City/Town
Tymashivka,45.5507755,34.1317845,City/Town
Amurske,45.2820945,34.1311243,City/Town
Iskra,45.2647358,34.182502,City/Town
Novozuivka,45.2382058,34.152872,City/Town
Novoivanivka,45.3093402,34.110529,City/Town
Novooleksiievka,45.2938948,34.1093982,City/Town
Tsvitkove,45.3134608,34.1640619,City/Town
Voskhod,45.5086417,34.3937961,City/Town
Volodymyrove,45.4603722,34.4350639,City/Town
Dokhodne,45.4844292,34.3860866,City/Town
Zoria,45.5037001,34.5219116,City/Town
Znamianka,45.5437423,34.3515504,City/Town
Klymove,45.4969541,34.4735368,City/Town
Nakhimove,45.5265699,34.4993609,City/Town
Novosiltsi,45.478979,34.4293343,City/Town
Plodorodne,45.5370506,34.3929974,City/Town
Chapaieve,45.5298833,34.424323,City/Town
Zernove,45.324179,34.4787229,City/Town
Novokaterynivka,45.3637358,34.5354464,City/Town
Kalinine,45.5947595,34.2187061,City/Town
Vyshniakivka,45.6156109,34.2373361,City/Town
Komunary,45.5506622,34.2237723,City/Town
Pobiedyne,45.6124715,34.2024292,City/Town
Klepynine,45.5230567,34.1856821,City/Town
Karpivka,45.5247326,34.0815907,City/Town
Yastrubivka,45.5165264,34.1140476,City/Town
Kolodiazne,45.2283486,34.3368453,City/Town
Dokuchaieve,45.2932754,34.3688656,City/Town
Polohy,45.2487254,34.3926959,City/Town
Kotelnykove,45.367739,34.0261654,City/Town
Dibrivske,45.388388,34.1204832,City/Town
Mashyne,45.3879588,34.1391488,City/Town
Krasnoznamianka,45.2879987,33.9975624,City/Town
Raduzhne,45.294557,34.0190282,City/Town
Rohove,45.3245165,33.9624308,City/Town
Symonenko,45.2993645,33.8972661,City/Town
Tymoshenko,45.289538,33.971771,City/Town
Traktove,45.3098479,33.9099063,City/Town
Leninske,45.2785726,34.0530159,City/Town
Zvizdne,45.2805793,34.0666706,City/Town
Priame,45.3169647,34.0244082,City/Town
Marianivka,45.4432046,34.2939925,City/Town
Ulianovka,45.443425,34.3450729,City/Town
Shcherbakove,45.4824823,34.3499302,City/Town
Naidonivka,45.2771366,34.4479973,City/Town
Zolote,45.2793039,34.5369076,City/Town
Orlivka,45.2509124,34.4791169,City/Town
Novopokrovka,45.4218911,34.4505184,City/Town
Krasna Dolyna,45.4371864,34.5153924,City/Town
Myronivka,45.4005896,34.4474191,City/Town
Muskatne,45.4656645,34.5384841,City/Town
Nevske,45.4565647,34.4763128,City/Town
Novodolynka,45.4261697,34.5191161,City/Town
Protochne,45.4146443,34.4938291,City/Town
Petrivka,45.5069603,34.2900563,City/Town
Blyzhnie,45.5223253,34.2979261,City/Town
Izvestkove,45.4826485,34.0008404,City/Town
Krasna Poliana,45.4736965,34.1279865,City/Town
Kremnivka,45.468764,34.085577,City/Town
Myroliubivka,45.4732176,34.2216524,City/Town
Novoestoniia,45.4996231,34.2410225,City/Town
Pushkine,45.5388257,34.3046937,City/Town
Poltavka,45.3517671,34.186861,City/Town
Komarivka,45.3552356,34.1579823,City/Town
Kurhanne,45.293602,34.1978605,City/Town
Piatykhatka,45.3250205,34.262004,City/Town
Azov,45.3231069,34.3377697,City/Town
Zarichne,45.304065,34.2805945,City/Town
Mendelieieve,45.3248398,34.1996385,City/Town
Salhyrka,45.3292424,34.2941725,City/Town
Kholmove,45.3261841,34.3762533,City/Town
Rivne,45.347602,34.3476127,City/Town
Molochne,45.3910325,34.3360271,City/Town
Nekrasove,45.423157,34.2843885,City/Town
Novomykilske,45.3936773,34.3847218,City/Town
Yantarne,45.4331857,34.2182167,City/Town
Hryhorivka,45.4215156,34.1218026,City/Town
Krasnyi Partyzan,45.4012007,34.2201254,City/Town
Udachne,45.3913024,34.2832708,City/Town
Bratske,45.8306074,33.9204007,City/Town
Poltavske,45.7903734,33.9060064,City/Town
Svatove,45.8125823,33.8638124,City/Town
Vyshnivka,45.9595406,33.9510093,City/Town
Zelena Nyva,45.9337217,33.8932535,City/Town
Kripke,45.9442249,33.9189882,City/Town
Utkine,45.9522751,33.8909867,City/Town
Voinka,45.8734675,33.9891818,City/Town
Istochne,45.9058746,34.016827,City/Town
Illinka,45.8208023,33.7906471,City/Town
Vorontsivka,45.8446749,33.8034131,City/Town
Kurhanne,45.8561002,33.7168828,City/Town
Traktove,45.796969,33.7507135,City/Town
Ishun,45.9228803,33.8227846,City/Town
Novorybatske,45.9238739,33.7725115,City/Town
Proletarka,45.9831685,33.8413369,City/Town
Tankove,45.9506415,33.8322053,City/Town
Krasnoarmiiske,45.992275,34.0318859,City/Town
Nadezhdyne,46.035472,33.999902,City/Town
Smushkyne,46.0125484,33.9360859,City/Town
Mahazynka,45.8586069,34.0526351,City/Town
Bohachivka,45.8885462,34.1147443,City/Town
Novoivanivka,45.8402133,34.0402285,City/Town
Novooleksandrivka,45.8749515,34.0859457,City/Town
Novopavlivka,45.8625568,33.8947643,City/Town
Dolynka,45.8618486,33.9410837,City/Town
Pryvilne,45.8645634,33.8802199,City/Town
Orlivske,45.8112936,33.9745534,City/Town
Znamianka,45.7778305,34.0010317,City/Town
Novomykolaivka,45.8327059,33.9629577,City/Town
Shatry,45.7923421,33.9988076,City/Town
Pochetne,45.9912677,33.769918,City/Town
Piatykhatka,46.0473691,33.7557296,City/Town
Sovkhozne,45.96135,33.7686444,City/Town
Rysove,46.0274654,33.6925593,City/Town
Tavriiske,45.9791099,33.741338,City/Town
Filativka,46.0827279,33.7838764,City/Town
Karpova Balka,46.0593263,33.8056918,City/Town
Shcholkine,45.4281508,35.8241047,City/Town
Lenine,45.3004643,35.7901969,City/Town
Baherove,45.3746988,36.2971389,City/Town
Ivanivka,45.2884505,36.2853668,City/Town
Ostanine,45.325398,35.9148389,City/Town
Zelenyi Yar,45.3435615,35.9839968,City/Town
Pisochne,45.3610894,35.9384245,City/Town
Batalne,45.1942042,35.6164063,City/Town
Yuzhne,45.1249435,35.6581899,City/Town
Yachminne,45.1994665,35.5348936,City/Town
Bielinske,45.3739506,36.0800172,City/Town
Verkhnozamorske,45.3673523,36.0276749,City/Town
Zolote,45.4265625,36.078338,City/Town
Nyzhnozamorske,45.368698,36.0143849,City/Town
Novovidradne,45.3953613,36.0654325,City/Town
Stantsiine,45.3546531,36.0366014,City/Town
Vynohradne,45.2921472,35.8454042,City/Town
Romanove,45.2922406,35.8748193,City/Town
Voikove,45.3828984,36.4350697,City/Town
Bondarenkove,45.4039145,36.4896409,City/Town
Yehorove,45.3866198,36.4830425,City/Town
Kurortne,45.4751885,36.3450515,City/Town
Hlazivka,45.3883066,36.5782176,City/Town
Osovyny,45.4316083,36.5954456,City/Town
Yurkyne,45.4265833,36.5697194,City/Town
Hornostaivka,45.2766024,36.1843679,City/Town
Zavitne,45.1091119,36.3931296,City/Town
Kostyrine,45.1520173,36.3695114,City/Town
Naberezhne,45.1413575,36.4155585,City/Town
Yakovenkove,45.0679925,36.3194248,City/Town
Illicheve,45.2800334,35.7314323,City/Town
Kalynivka,45.3252694,35.7435509,City/Town
Kirove,45.2236268,35.8413412,City/Town
Vulkanivka,45.139852,35.9430458,City/Town
Yarke,45.1379549,35.8534955,City/Town
Krasnohirka,45.2445392,35.8096368,City/Town
Korolove,45.2780545,35.7815279,City/Town
Leninske,45.2554535,35.9157332,City/Town
Fontan,45.2678904,36.0265444,City/Town
Luhove,45.2352229,35.7220174,City/Town
Yerofieieve,45.2062069,35.6535716,City/Town
Marfivka,45.1975655,36.0926405,City/Town
Novoselivka,45.245595,36.0996861,City/Town
Prudnykove,45.1570707,36.0804571,City/Town
Marivka,45.1120525,36.2372437,City/Town
Borysivka,45.1004823,36.2331921,City/Town
Viaznykove,45.1112606,36.2537436,City/Town
Ptashkyne,45.1652527,36.1840017,City/Town
Mysove,45.4451335,35.8389586,City/Town
Azovske,45.4044073,35.8783055,City/Town
Zavodske,45.3457975,35.7336283,City/Town
Semenivka,45.3853302,35.7590318,City/Town
Novomykolaivka,45.3096402,36.0584089,City/Town
Oktiabrske,45.3618449,36.3553511,City/Town
Pryozerne,45.2723972,36.3353459,City/Town
Semysotka,45.2456905,35.5643967,City/Town
Kamianske,45.2804025,35.520337,City/Town
Lvove,45.2631915,35.4712393,City/Town
Petrove,45.2254068,35.5328044,City/Town
Soliane,45.3267855,35.4155272,City/Town
Frontove,45.197285,35.4524325,City/Town
Uvarove,45.2614838,35.6649619,City/Town
Cheliadinove,45.2042512,36.3751264,City/Town
Ohonky,45.1932336,36.323849,City/Town
Chystopillia,45.3647828,36.1825083,City/Town
Zatyshne,45.3735985,36.1738335,City/Town
Libknekhtivka,45.3354656,36.214454,City/Town
Tasunove,45.3133181,36.2236979,City/Town
Nyzhnohirskyi,45.4484456,34.7402301,City/Town
Zelene,45.4653768,34.7335402,City/Town
Liniine,45.4821936,34.7159189,City/Town
Yakymivka,45.533545,34.8192551,City/Town
Dvorichchia,45.5070869,34.8156495,City/Town
Luzhky,45.5404629,34.8508802,City/Town
Drofyne,45.2858277,34.6142691,City/Town
Strepetove,45.2719857,34.6095511,City/Town
Yastrubky,45.2913571,34.5740774,City/Town
Omelianivka,45.5316448,34.8984431,City/Town
Zheliabovka,45.4024697,34.7615972,City/Town
Lomonosove,45.4020344,34.6834172,City/Town
Zhemchuzhyna,45.2751779,34.6570178,City/Town
Piny,45.2526455,34.6445543,City/Town
Pryrichne,45.2749885,34.7100717,City/Town
Zorkine,45.5451985,34.7060716,City/Town
Mezhove,45.5175194,34.7103015,City/Town
Nizhynske,45.5777291,34.7281945,City/Town
Shyroke,45.5625447,34.7838865,City/Town
Ivanivka,45.3764713,34.7228389,City/Town
Zarichchia,45.3552363,34.7054401,City/Town
Tambovka,45.3662439,34.7284897,City/Town
Tarasivka,45.3352391,34.7319028,City/Town
Izobilne,45.5702437,34.9435667,City/Town
Kistochkivka,45.3139846,34.6755211,City/Town
Frunze,45.3033389,34.7102349,City/Town
Lystvynne,45.4791994,34.8101607,City/Town
Kyrsanivka,45.4950653,34.8175428,City/Town
Tsvitushche,45.497009,34.8717909,City/Town
Mytrofanivka,45.4514843,34.6733018,City/Town
Burevisnyk,45.4452929,34.6495407,City/Town
Plodove,45.4496654,34.7203253,City/Town
Rozlyvy,45.458998,34.7224697,City/Town
Chervone,45.472593,34.6648157,City/Town
Mykhailivka,45.5291861,34.6392557,City/Town
Kuntseve,45.5462359,34.6643845,City/Town
Uiutne,45.5195224,34.5908177,City/Town
Novohryhorivka,45.4506049,34.6026589,City/Town
Vladyslavivka,45.4699392,34.6021526,City/Town
Korinne,45.4407011,34.5452776,City/Town
Okhotske,45.4849761,34.8598882,City/Town
Rodnyky,45.469823,34.8454427,City/Town
Pshenychne,45.6464918,34.8383243,City/Town
Dvorove,45.62549,34.8954606,City/Town
Liubymivka,45.6327734,34.928698,City/Town
Slyvianka,45.6598278,34.8747695,City/Town
Sadove,45.3032821,34.6482992,City/Town
Kukurudziane,45.3707911,34.6395776,City/Town
Sierove,45.3269532,34.6714303,City/Town
Uvarivka,45.4520437,34.7868994,City/Town
Novoivanivka,45.4598687,34.8020489,City/Town
Simiane,45.460056,34.7627514,City/Town
Chkalove,45.6034783,34.830774,City/Town
Velykosillia,45.6212753,34.7448539,City/Town
Zalyvne,45.5722051,34.872956,City/Town
Kovrove,45.6144243,34.9011803,City/Town
Luhove,45.6024412,34.8855133,City/Town
Stepanivka,45.5957002,34.8877443,City/Town
Pervomaiske,45.716423,33.8636992,City/Town
Makarivka,45.739615,33.8796286,City/Town
Pshenychne,45.6897157,33.8876417,City/Town
Uporne,45.7014841,33.882958,City/Town
Oleksiivka,45.5814959,33.6323578,City/Town
Pryvilne,45.6546216,33.655482,City/Town
Abrykosove,45.6922739,34.1018103,City/Town
Voikove,45.511647,33.8810831,City/Town
Vidkryte,45.4338626,33.832155,City/Town
Dmytrivka,45.5128288,33.8429377,City/Town
Hvardiiske,45.588565,33.9791451,City/Town
Bratske,45.5847515,33.933359,City/Town
Olenivka,45.5773516,34.0470365,City/Town
Hryshyne,45.646472,33.8300029,City/Town
Vypasne,45.6230486,33.9035287,City/Town
Frunze,45.6472732,33.8651156,City/Town
Kalinine,45.7428032,33.7741012,City/Town
Levitanivka,45.7185606,33.8114973,City/Town
Kormove,45.4959237,33.6109242,City/Town
Tykhonivka,45.4953684,33.5590287,City/Town
Chapaieve,45.5120478,33.6248924,City/Town
Krestianivka,45.7236032,33.9379144,City/Town
Nova Derevnia,45.7660763,33.9215411,City/Town
Oktiabrske,45.6588085,33.9502977,City/Town
Kamianka,45.6637326,33.9779619,City/Town
Ostrovske,45.7410112,34.0612701,City/Town
Melnychne,45.7661697,34.0328473,City/Town
Snihurivka,45.7807169,34.0735403,City/Town
Pravda,45.7828495,33.8461794,City/Town
Arbuzove,45.7558217,33.8624014,City/Town
Matviivka,45.7516464,33.8123877,City/Town
Stakhanovka,45.3689889,33.9516497,City/Town
Dalnie,45.4354197,34.009556,City/Town
Stepne,45.6501434,33.7744464,City/Town
Krylovka,45.7053777,33.6464732,City/Town
Susanine,45.498974,33.6981583,City/Town
Panfilovka,45.4980409,33.7360388,City/Town
Rivne,45.4991009,33.8025028,City/Town
Sary-Bash,45.5714439,33.7852816,City/Town
Chernove,45.5108528,33.9318807,City/Town
Kashtanivka,45.4345664,33.8855562,City/Town
Sverdlovske,45.4812562,33.9336584,City/Town
Rozdolne,45.7698286,33.4919221,City/Town
Novoselivske,45.4351939,33.5933561,City/Town
Sieverne,45.460844,33.5767833,City/Town
Berezivka,45.57301,33.3414283,City/Town
Nyva,45.5792579,33.2660254,City/Town
Ulianovka,45.5670521,33.3070537,City/Town
Botanichne,45.7869108,33.5512659,City/Town
Kumove,45.8383397,33.6216649,City/Town
Chervone,45.7761523,33.52525,City/Town
Zymyne,45.507159,33.515119,City/Town
Voronky,45.5865272,33.5313117,City/Town
Krasnoarmiiske,45.5526617,33.5007754,City/Town
Ovrazhne,45.5412618,33.5241164,City/Town
Kovylne,45.6893412,33.5271234,City/Town
Vitrianka,45.6610648,33.5739049,City/Town
Volochaivka,45.6927734,33.4715816,City/Town
Molochne,45.7282165,33.454655,City/Town
Sinokisne,45.7321105,33.5188874,City/Town
Kukushkine,45.718595,33.3870783,City/Town
Vohni,45.7682468,33.3872897,City/Town
Ruchi,45.7853442,33.662017,City/Town
Horodnie,45.7536319,33.7007321,City/Town
Komyshne,45.7945996,33.6771618,City/Town
Komunarne,45.7335772,33.6771807,City/Town
Maksymivka,45.7675775,33.6183248,City/Town
Fedorivka,45.7732986,33.6903238,City/Town
Serebrianka,45.6411924,33.4959809,City/Town
Bakhchivka,45.612723,33.4197202,City/Town
Kashtanivka,45.6157162,33.3601108,City/Town
Orlivka,45.6704951,33.3736405,City/Town
Sokoly,45.6469723,33.4352985,City/Town
Chekhove,45.550405,33.4136889,City/Town
Slavne,45.7187824,33.2351588,City/Town
Kotovske,45.6975333,33.1666415,City/Town
Rylieievka,45.6414463,33.2619488,City/Town
Sterehushche,45.7479516,33.2465503,City/Town
Slovianske,45.7275698,33.3199694,City/Town
Avrora,45.7534242,33.2700639,City/Town
Chernyshove,45.7843022,33.4254561,City/Town
Kropotkine,45.8016523,33.4809827,City/Town
Portove,45.8495966,33.4859213,City/Town
Novofedorivka,45.0922266,33.5738748,City/Town
Veresaieve,45.3051037,33.4977938,City/Town
Hlinka,45.2832704,33.5322729,City/Town
Veselivka,45.3766149,33.2079378,City/Town
Vladne,45.3946474,33.2593169,City/Town
Porfyrivka,45.3601379,33.2312806,City/Town
Natashyne,45.4105704,33.2719886,City/Town
Vynohradove,45.3919892,33.6444639,City/Town
Vitrivka,45.3561418,33.6364462,City/Town
Vorobiove,45.3344631,33.2510697,City/Town
Furmanove,45.3127396,33.2237702,City/Town
Shaumian,45.3614732,33.2628141,City/Town
Shyshkyne,45.3129468,33.2026726,City/Town
Heroiske,45.1386647,33.7461201,City/Town
Yarke,45.1617172,33.8048809,City/Town
Dobrushyne,45.3757664,33.3647151,City/Town
Yelyzavetove,45.4473012,33.3575539,City/Town
Izvestkove,45.3333287,33.3184825,City/Town
Soldatske,45.4916887,33.3948505,City/Town
Shalashi,45.4717984,33.4217931,City/Town
Zernove,45.2884132,33.8604649,City/Town
Nyzynne,45.207767,33.911835,City/Town
Ivanivka,45.0725835,33.6611133,City/Town
Zhaivoronky,45.0688312,33.7565377,City/Town
Koltsove,45.3277814,33.4484363,City/Town
Vohneve,45.379851,33.4414284,City/Town
Nyva,45.3280418,33.4247192,City/Town
Krainie,45.2278936,33.8332555,City/Town
Vershynne,45.22443,33.7558305,City/Town
Trudove,45.2364545,33.7577724,City/Town
Krymske,45.1917493,33.7997504,City/Town
Valentynove,45.1370414,33.8404921,City/Town
Ihorivka,45.1620029,33.8388756,City/Town
Stepove,45.1511344,33.8889436,City/Town
Lisnivka,45.155432,33.6207295,City/Town
Volodymyrivka,45.1470456,33.5678835,City/Town
Harshyne,45.2161754,33.5908472,City/Town
Kulykivka,45.218753,33.6110608,City/Town
Pryberezhne,45.1474529,33.5204631,City/Town
Mytiaieve,45.2332173,33.6917917,City/Town
Dolynka,45.2393549,33.6594527,City/Town
Zhuravli,45.2532295,33.6405304,City/Town
Lystove,45.2618822,33.6693234,City/Town
Shovkovychne,45.1865376,33.683092,City/Town
Molochne,45.1989623,33.2232085,City/Town
Abrykosivka,45.2680927,33.1929449,City/Town
Vityne,45.2076689,33.1505083,City/Town
Orikhove,45.1306637,33.6272175,City/Town
Mykhailivka,45.1118395,33.6146529,City/Town
Chervone,45.1165327,33.6874911,City/Town
Chobotarka,45.1105828,33.6854409,City/Town
Okhotnykove,45.24064,33.5944003,City/Town
Hromovka,45.2716191,33.600261,City/Town
Karierne,45.2893569,33.6106141,City/Town
Naumivka,45.3120619,33.6405679,City/Town
Orlianka,45.2368539,33.563351,City/Town
Runne,45.2929733,33.5717463,City/Town
Romashkyne,45.2543746,33.2544259,City/Town
Kolosky,45.2709288,33.2918983,City/Town
Syzivka,45.3507978,33.8758636,City/Town
Vodopiine,45.3141519,33.8098633,City/Town
Illinka,45.3707303,33.7801842,City/Town
Luhove,45.3826968,33.7097473,City/Town
Stovpove,45.3635006,33.4988795,City/Town
Lushyne,45.419626,33.5397813,City/Town
Suvorovske,45.2476955,33.3883042,City/Town
Velyke,45.3091995,33.3504615,City/Town
Zhovtokamianka,45.2749723,33.4495469,City/Town
Kamenolomnia,45.2490697,33.4249221,City/Town
Lymanne,45.2398288,33.4000433,City/Town
Pobiedne,45.2884357,33.4291461,City/Town
Tunelne,45.280945,33.4415206,City/Town
Uiutne,45.2018968,33.3000979,City/Town
Frunze,45.0249962,33.6311069,City/Town
Shtormove,45.2680823,33.0864061,City/Town
Krylovka,45.3100277,33.0856376,City/Town
Popivka,45.2953667,33.0365589,City/Town
Pryvitne,45.3057185,33.132144,City/Town
Khutorok,45.2509034,33.1412559,City/Town
Hvardiiske,45.1119411,34.0263367,City/Town
Krasna Zorka,45.1268353,34.0395912,City/Town
Malenke,45.0768879,34.0116978,City/Town
Sofiivka,45.0931901,34.0019096,City/Town
Novyi Sad,45.1457605,34.0016943,City/Town
Molodizhne,44.9916112,34.0831323,City/Town
Soniachne,45.047796,34.0815809,City/Town
Mykolaivka,44.9738332,33.6061296,City/Town
Vinnytske,44.9802005,33.73693,City/Town
Kliuchove,45.0084906,33.7451673,City/Town
Oleksandrivka,45.0012146,33.7638329,City/Town
Petrivka,45.0180937,33.7830361,City/Town
Rozdollia,44.9731704,33.6943196,City/Town
Teplivka,45.0317264,33.6980444,City/Town
Dobre,44.8664235,34.2398547,City/Town
Andrusove,44.8920491,34.1789224,City/Town
Zarichne,44.8526499,34.2714355,City/Town
Krasnolissia,44.8384279,34.2260462,City/Town
Lozove,44.9078282,34.1600497,City/Town
Mramorne,44.8226248,34.2594923,City/Town
Perevalne,44.8389567,34.3281864,City/Town
Petropavlivka,44.8973462,34.1473083,City/Town
Pionerske,44.8770681,34.2024427,City/Town
Pryvilne,44.7994582,34.3427288,City/Town
Fersmanove,44.8917807,34.1997343,City/Town
Chaikovske,44.8395056,34.3430347,City/Town
Donske,45.0394585,34.2192738,City/Town
Verkhnokurhanne,45.0881684,34.2418953,City/Town
Davydove,45.097751,34.2000133,City/Town
Dmytrove,45.0596151,34.2555691,City/Town
Klenivka,45.1283561,34.1956897,City/Town
Nyzhnokurhanne,45.1140348,34.2336499,City/Town
Spokiine,45.0864632,34.2028773,City/Town
Zhuravlivka,45.1762356,33.9958952,City/Town
Storozheve,45.1769427,33.909651,City/Town
Sumske,45.20374,33.9692486,City/Town
Kolchuhyne,44.9471458,33.7920731,City/Town
Prudove,44.9049872,33.7794825,City/Town
Rivnopillia,44.9286391,33.7110174,City/Town
Mazanka,45.0083751,34.2518495,City/Town
Krasnivka,44.9806956,34.2555488,City/Town
Lisnosillia,44.9813057,34.2717004,City/Town
Opushky,44.9513194,34.2869689,City/Town
Solovivka,44.9533966,34.2955743,City/Town
Myrne,44.9853517,34.0566475,City/Town
Bilohlynka,44.9957188,34.040017,City/Town
Hrusheve,45.0040119,34.0405949,City/Town
Novoandriivka,45.1976492,34.0936744,City/Town
Sukhorichchia,45.1793047,34.0878813,City/Town
Kharytonivka,45.2074434,34.1475552,City/Town
Novoselivka,44.9951286,33.8345144,City/Town
Pervomaiske,45.1087902,34.0664008,City/Town
Krasne,45.1440258,34.0910054,City/Town
Chaikyne,45.0835173,34.0863156,City/Town
Perove,44.9247124,34.0520759,City/Town
Vesele,45.00718,33.9644523,City/Town
Dubky,44.937565,34.0239794,City/Town
Zalissia,44.886047,34.1033693,City/Town
Kashtanove,44.8290368,34.0562781,City/Town
Kyzylove,44.8218274,34.0430009,City/Town
Klynivka,44.862613,34.1527438,City/Town
Kliuchi,44.961598,33.9536572,City/Town
Kostiantynivka,44.8564375,34.1190217,City/Town
Molochne,44.9146937,34.0389048,City/Town
Novomykolaivka,44.903529,34.0959896,City/Town
Obryv,44.9004958,34.1064138,City/Town
Partyzanske,44.8318931,34.0847875,City/Town
Teple,44.8793178,34.1625812,City/Town
Topolne,44.8458881,34.0940789,City/Town
Ukrainka,44.8872112,34.1400863,City/Town
Pozharske,44.9337882,33.8708381,City/Town
Vodne,44.9417771,33.8447346,City/Town
Demianivka,44.925581,33.9051649,City/Town
Likarstvenne,44.9401515,33.8264827,City/Town
Rodnykove,45.0443619,33.9541538,City/Town
Arkadiievka,45.0362602,33.9154796,City/Town
Kubanske,45.0443858,33.9152629,City/Town
Kurhanne,45.0696662,33.937731,City/Town
Novyi Myr,45.0594292,33.9331441,City/Town
Shafranne,45.1175119,33.912114,City/Town
Skvortsove,45.0777212,33.8163478,City/Town
Kolodiazne,45.0234828,33.8292341,City/Town
Mizhhirne,45.1006904,33.8593117,City/Town
Peredove,45.0517666,33.8248971,City/Town
Trudove,44.9929858,34.2049529,City/Town
Denysivka,44.9205749,34.2311768,City/Town
Druzhne,44.8978053,34.2908694,City/Town
Ivanivka,44.9348233,34.2475474,City/Town
Lazarivka,44.9290839,34.2763844,City/Town
Strohonivka,44.9445014,34.1886442,City/Town
Aikavan,45.015911,34.1511808,City/Town
Akropolis,44.9990721,34.168735,City/Town
Ana-Yurt,44.9996799,34.1487495,City/Town
Ukromne,45.0474884,34.0009707,City/Town
Sovkhozne,45.0309228,34.0092911,City/Town
Urozhaine,45.0647728,34.1118447,City/Town
Zhyvopysne,45.0392472,34.1634027,City/Town
Chystenke,44.8849898,34.0389067,City/Town
Komyshynka,44.8893431,33.945228,City/Town
Levadky,44.8692159,34.0412908,City/Town
Novozburivka,44.9189006,33.9717528,City/Town
Tryprudne,44.8978994,34.021046,City/Town
Trudoliubove,44.8850499,33.9862478,City/Town
Fontany,44.8989632,34.0604447,City/Town
Shyroke,45.1999876,34.0481277,City/Town
Dyvne,45.2031636,34.0200622,City/Town
Kuprine,45.1633085,34.0156853,City/Town
Prolitne,45.2181994,34.0767718,City/Town
Shkilne,45.0572872,33.8967891,City/Town
Sovietskyi,45.3409546,34.9258214,City/Town
Dmytrivka,45.4807575,35.056114,City/Town
Rovenka,45.4813965,34.9848402,City/Town
Zavitne,45.3272628,34.8080149,City/Town
Pchilnyky,45.2937064,34.7830224,City/Town
Illicheve,45.2443018,35.0710222,City/Town
Vostochne,45.2190197,35.0264668,City/Town
Heorhiivka,45.2421914,35.0178802,City/Town
Diatlivka,45.179195,35.0524562,City/Town
Nadezhda,45.2086978,35.0998622,City/Town
Richne,45.1980476,35.033372,City/Town
Shakhtyne,45.2518091,35.022829,City/Town
Krasnohvardiiske,45.1843762,34.9525475,City/Town
Lokhivka,45.2214766,34.8834381,City/Town
Luchove,45.2119285,34.8289853,City/Town
Krasnoflotske,45.3176541,34.944285,City/Town
Varvarivka,45.323974,34.898009,City/Town
Lebedynka,45.3326157,34.8713634,City/Town
Markove,45.2871899,35.0043019,City/Town
Nekrasovka,45.4380643,34.9862609,City/Town
Oktiabrske,45.3992839,34.908848,City/Town
Prudy,45.2406302,34.7028818,City/Town
Pryvilne,45.2434408,34.7827467,City/Town
Pushkine,45.1983116,34.9753295,City/Town
Makivka,45.2433925,34.9750043,City/Town
Urozhaine,45.3363093,35.0696292,City/Town
Prysyvashne,45.353509,35.0188044,City/Town
Chapaievka,45.2822172,34.8958209,City/Town
Kolomenske,45.2986341,34.9146522,City/Town
Mykolaivka,45.2711916,34.9322021,City/Town
Novoselivka,45.265784,34.9714067,City/Town
Novyi Myr,45.2855345,34.8708073,City/Town
Khlibne,45.2667931,34.8714173,City/Town
Chornozemne,45.4075015,34.8240726,City/Town
Almazne,45.3824129,34.8299145,City/Town
Demianivka,45.4248147,34.7793277,City/Town
Korniivka,45.3434365,34.8445639,City/Town
Rozdolne,45.3617544,34.856549,City/Town
Chornomorske,45.5018608,32.704669,City/Town
Daleke,45.6594145,33.0768876,City/Town
Volodymyrivka,45.652135,33.0237372,City/Town
Zhuravlivka,45.6412997,33.0692896,City/Town
Zoriane,45.5913629,33.0681439,City/Town
Sieverne,45.6838851,33.0561163,City/Town
Kirovske,45.5452607,33.0776296,City/Town
Dozorne,45.5090037,33.0843752,City/Town
Zadorne,45.5723176,33.1736465,City/Town
Nyzivka,45.5591805,33.04367,City/Town
Krasna Poliana,45.4821967,32.9387398,City/Town
Vnukove,45.4781074,32.9799326,City/Town
Kuznetske,45.467006,32.8843381,City/Town
Krasnoiarske,45.5050962,33.264268,City/Town
Lenske,45.5029313,33.2980153,City/Town
Medvedeve,45.3880909,33.0004102,City/Town
Ozerivka,45.3631704,32.9798236,City/Town
Mizhvodne,45.588142,32.8451024,City/Town
Vodopiine,45.5912705,32.9364096,City/Town
Zaitseve,45.5385759,32.883365,City/Town
Novoulianovka,45.576856,32.9459226,City/Town
Snizhne,45.5266842,32.8373142,City/Town
Novoivanivka,45.4489434,33.0981748,City/Town
Khmelove,45.4974775,33.1804064,City/Town
Novosilske,45.500409,32.7278944,City/Town
Artemivka,45.4651285,32.8233793,City/Town
Okunivka,45.3690887,32.7621734,City/Town
Hromove,45.3861805,32.8664867,City/Town
Znamianske,45.3783018,32.8983676,City/Town
Krasnosilske,45.4156425,32.6765161,City/Town
Marine,45.3467762,32.7088065,City/Town
Olenivka,45.3787539,32.5400094,City/Town
Kalynivka,45.4879288,32.6792662,City/Town
Maiak,45.3480038,32.4968999,City/Town
Vinnytsia,49.2319611,28.4763239,City/Town
Zhmerynka,49.0368612,28.1068585,City/Town
Mohyliv-Podilskyi,48.4494159,27.7987835,City/Town
Odaia,48.4197959,27.835567,City/Town
Soniachne,48.4531465,27.8429812,City/Town
Koziatyn,49.7106162,28.8295294,City/Town
Zaliznychne,49.7449738,28.7911269,City/Town
Ladyzhyn,48.6814058,29.2393307,City/Town
Hubnyk,48.6200113,29.2959994,City/Town
Lukashivka,48.6502206,29.2001384,City/Town
Ruzhytske,48.6174146,29.3022846,City/Town
Khmilnyk,49.5527019,27.9408132,City/Town
Bar,49.075075,27.6813043,City/Town
Kopaihorod,48.8592514,27.7955399,City/Town
Kopai,48.8895643,27.7484365,City/Town
Perelisky,48.8550757,27.8489713,City/Town
Ukrainske,48.8211726,27.8380646,City/Town
Shevchenkove,48.8744283,27.8261586,City/Town
Shypynky,48.8726565,27.7830198,City/Town
Antonivka,49.0856339,27.7792673,City/Town
Hlynianka,49.0709899,27.78195,City/Town
Shyroke,49.0789127,27.7540626,City/Town
Balky,49.0601267,27.6843336,City/Town
Adamivka,49.0410795,27.6392006,City/Town
Yosypivtsi,49.0364352,27.6685378,City/Town
Okladne,49.0477932,27.6474488,City/Town
Chemerysy-Barski,49.0676688,27.6583828,City/Town
Verkhivka,48.9054451,27.6497023,City/Town
Prymoshchanytsia,48.9029155,27.6636146,City/Town
Voinashivka,49.0475321,27.7171047,City/Town
Bar,49.0363682,27.7184416,City/Town
Zamozhne,49.0252451,27.7273833,City/Town
Zatoky,49.0239522,27.6977613,City/Town
Kanonytske,49.0178558,27.7203256,City/Town
Myrne,49.0293692,27.6911978,City/Town
Mizhlissia,49.0452915,27.7432215,City/Town
Pliatsyna,49.0474412,27.6994664,City/Town
Volodiivtsi,48.8569515,27.7413145,City/Town
Zelene,48.8880973,27.7404744,City/Town
Marianivka,48.8721557,27.6872588,City/Town
Haiove,49.1100021,27.6368802,City/Town
Ivanovetske,49.0982376,27.6845932,City/Town
Kolosivka,49.1179285,27.5964257,City/Town
Kotova,49.0908853,27.7031692,City/Town
Shpyrky,49.1107606,27.6717788,City/Town
Harmaky,49.098736,27.5581197,City/Town
Dibrova,49.0679759,27.5301894,City/Town
Huli,48.9215192,27.4247084,City/Town
Sloboda-Hulivska,48.9382943,27.4448431,City/Town
Zhuravlivka,49.0149458,27.5837256,City/Town
Butsni,48.9603542,27.6323906,City/Town
Liadova,48.9493799,27.571071,City/Town
Pylypy,48.9717376,27.5788528,City/Town
Seferivka,48.9797066,27.6085311,City/Town
Ivanivtsi,49.1010496,27.7169667,City/Town
Shevchenka,49.1387661,27.7364352,City/Town
Karyshkiv,48.821899,27.898554,City/Town
Hrabivtsi,48.8592548,27.8949637,City/Town
Komarivtsi,49.1375281,27.6358663,City/Town
Kuzmyntsi,48.9599327,27.6785108,City/Town
Holubivka,48.9832075,27.6665768,City/Town
Martynivka,48.945994,27.726894,City/Town
Lisove,48.8277604,27.7478958,City/Town
Polove,48.8264104,27.6894159,City/Town
Luka-Barska,49.1492235,27.7997583,City/Town
Vasiutyntsi,49.1426988,27.7821012,City/Town
Horiany,49.1604109,27.8139091,City/Town
Zoriane,49.1842489,27.7821131,City/Town
Kvitka,49.1736479,27.7976081,City/Town
Malchivtsi,48.9921214,27.7756323,City/Town
Stepanky,49.017898,27.853392,City/Town
Mankivtsi,49.053941,27.846705,City/Town
Melnyky,49.0601944,27.8628654,City/Town
Ulianivka,49.0283872,27.8206498,City/Town
Mateikiv,48.9740656,27.8056593,City/Town
Murashka,48.9351243,27.8711068,City/Town
Pavlivka,48.9455415,27.8281457,City/Town
Trudoliubivka,48.9492997,27.8660877,City/Town
Myhalivtsi,49.0292607,27.5441992,City/Town
Kozarivka,49.0606672,27.5021739,City/Town
Mytky,48.9747613,27.7556946,City/Town
Kyianivka,48.9880573,27.7176411,City/Town
Pidlisnyi Yaltushkiv,48.9259401,27.5490625,City/Town
Popivtsi,48.9085611,27.8329411,City/Town
Vereshky,48.9177077,27.7512403,City/Town
Kosharyntsi,48.9173295,27.7984982,City/Town
Supivka,48.8462302,27.650373,City/Town
Barok,48.848852,27.6831043,City/Town
Hubachivka,48.8771508,27.6039913,City/Town
Tereshky,49.0186716,27.6159168,City/Town
Havryshivka,49.0195681,27.6358672,City/Town
Semenky,49.0007273,27.6488364,City/Town
Khodaky,49.0304775,27.4556084,City/Town
Bryhydivka,49.0044857,27.4074513,City/Town
Luhove,49.038754,27.4996807,City/Town
Sloboda,48.9800259,27.4643033,City/Town
Sloboda-Khodatska,49.031563,27.4252291,City/Town
Chereshneve,48.9976481,27.4649635,City/Town
Chemeryske,49.0478064,27.5863648,City/Town
Borshchi,49.0518381,27.555601,City/Town
Rehentivka,49.0375804,27.5991327,City/Town
Stasiuky,49.040187,27.6111079,City/Town
Shershni,49.0704631,27.6036959,City/Town
Yaltushkiv,49.0002807,27.4991568,City/Town
Bilychyn,48.9569874,27.4855565,City/Town
Sloboda-Yaltushkivska,48.9793762,27.5094927,City/Town
Bershad,48.3652599,29.5206241,City/Town
Balanivka,48.4139201,29.3946079,City/Town
Byrlivka,48.3862508,29.4457355,City/Town
Velyka Kyriivka,48.3757372,29.6184718,City/Town
Holdashivka,48.219757,29.7035375,City/Town
Dzhulynka,48.4351015,29.7547383,City/Town
Berizky-Bershadski,48.4183948,29.720085,City/Town
Diakivka,48.4766102,29.9236901,City/Town
Kydrasivka,48.2460361,29.7326879,City/Town
Kosharyntsi,48.4912062,29.4466339,City/Town
Krasnosilka,48.5085671,29.635473,City/Town
Lisnyche,48.2612264,29.5894969,City/Town
Vovchok,48.2262142,29.5663248,City/Town
Mankivka,48.4837411,29.6337537,City/Town
Krushynivka,48.4868775,29.5835852,City/Town
Shumyliv,48.4750223,29.6778472,City/Town
Mykhailivka,48.2307814,29.6546472,City/Town
Romanivka,48.2639273,29.6686357,City/Town
Miakokhid,48.5379637,29.6733705,City/Town
Osiivka,48.3290038,29.7220391,City/Town
Mala Kyriivka,48.3279252,29.6713321,City/Town
Partyzanske,48.2960174,29.7045069,City/Town
Potashnia,48.3182653,29.6084783,City/Town
Piatkivka,48.3230068,29.3879415,City/Town
Hlynske,48.3311625,29.4438547,City/Town
Serebriia,48.5542249,29.9275657,City/Town
Berezivka,48.5339848,29.9170531,City/Town
Seredynka,48.5587138,29.8852691,City/Town
Stavky,48.3824,29.7832427,City/Town
Sumivka,48.4839966,29.4949629,City/Town
Ternivka,48.5362839,29.9726473,City/Town
Tyrlivka,48.4554328,29.8688797,City/Town
Kavkuly,48.4328261,29.8603766,City/Town
Ustia,48.3732457,29.709063,City/Town
Luhova,48.3647766,29.7360728,City/Town
Ustia,48.3506173,29.6820663,City/Town
Floryne,48.3452252,29.536679,City/Town
Viitivka,48.4156968,29.5412156,City/Town
Cherniatka,48.4865724,29.710763,City/Town
Khmarivka,48.5127917,29.6692015,City/Town
Shliakhova,48.4988302,29.855264,City/Town
Zavitne,48.5070399,29.8135257,City/Town
Teofilivka,48.4785258,29.8160213,City/Town
Yalanets,48.298106,29.4662632,City/Town
Yalanets,48.2807646,29.4310303,City/Town
Voronovytsia,49.109309,28.6877547,City/Town
Desna,49.286819,28.5403187,City/Town
Stryzhavka,49.3144721,28.5017875,City/Town
Slavne,49.3190846,28.5457049,City/Town
Ahronomichne,49.1984598,28.3835045,City/Town
Bokhonyky,49.1672344,28.3694485,City/Town
Velyki Krushlyntsi,49.2385132,28.7261545,City/Town
Vinnytski Khutory,49.2078561,28.5425123,City/Town
Havryshivka,49.2420972,28.6342843,City/Town
Humenne,49.1900296,28.7023099,City/Town
Mykhailivka,49.1991943,28.7260576,City/Town
Dorozhne,49.3706304,28.5119927,City/Town
Zhabelivka,49.187214,28.7733912,City/Town
Ivanivka,49.1118707,28.5005045,City/Town
Tsvizhyn,49.1212041,28.5482138,City/Town
Ilkivka,49.1423595,28.2938869,City/Town
Horbanivka,49.153003,28.3155019,City/Town
Rivets,49.1251232,28.3288474,City/Town
Komariv,49.1454232,28.6706487,City/Town
Ksaverivka,49.2592827,28.29992,City/Town
Lysohora,49.2654682,28.3336243,City/Town
Lavrivka,49.3428552,28.4687013,City/Town
Medvidka,49.3786785,28.4622136,City/Town
Luka-Meleshkivska,49.1804326,28.4962991,City/Town
Prybuzke,49.1751143,28.4260369,City/Town
Tiutky,49.1784273,28.4484021,City/Town
Maidan,49.2367931,28.262146,City/Town
Sloboda-Dashkovetska,49.2431718,28.2810705,City/Town
Mali Krushlyntsi,49.2499998,28.6731444,City/Town
Medvezhe Vushko,49.1797483,28.3086342,City/Town
Miziakivski Khutory,49.3361064,28.3468693,City/Town
Pereorky,49.3122202,28.4046981,City/Town
Tiutiunnyky,49.3394928,28.4132079,City/Town
Nekrasove,49.1995185,28.2190736,City/Town
Olenivka,49.2124629,28.7949448,City/Town
Oleksandrivka,49.2027266,28.8216067,City/Town
Parpurivtsi,49.1714206,28.5291059,City/Town
Maidan-Chapelskyi,49.1882473,28.5387924,City/Town
Khyzhyntsi,49.1760549,28.5700543,City/Town
Pysarivka,49.1951927,28.60702,City/Town
Shchitky,49.1966009,28.5902465,City/Town
Poberezhne,49.1060616,28.7801516,City/Town
Kordyshivka,49.0872167,28.7509811,City/Town
Pultivtsi,49.1821338,28.1893382,City/Town
Lysianka,49.1901542,28.1301531,City/Town
Makhnivka,49.1902199,28.1501824,City/Town
Sokyryntsi,49.1703097,28.6115357,City/Town
Sosonka,49.3383103,28.581217,City/Town
Stadnytsia,49.2903456,28.6009775,City/Town
Stepanivka,49.1238878,28.7635824,City/Town
Shyroka Hreblia,49.1683387,28.2361489,City/Town
Yakushyntsi,49.263809,28.3549362,City/Town
Berezyna,49.2229881,28.3528039,City/Town
Zarvantsi,49.2517665,28.3965933,City/Town
Haisyn,48.8145145,29.3886102,City/Town
Mlynky,48.8296471,29.3694785,City/Town
Bonduri,48.8976735,29.4244787,City/Town
Shura-Bondurivska,48.8996587,29.3762533,City/Town
Bubnivka,48.7242014,29.3074211,City/Town
Dmytrenky,48.700159,29.2943663,City/Town
Novoselivka,48.710262,29.3288993,City/Town
Hraniv,48.8750252,29.5597105,City/Town
Hruzke,48.746304,29.6108416,City/Town
Hubnyk,48.6217464,29.3631217,City/Town
Hubnyk,48.6207578,29.3305539,City/Town
Huncha,48.8730375,29.4543636,City/Town
Adamivka,48.8605377,29.5008321,City/Town
Zherdenivka,48.715948,29.3816159,City/Town
Rozivka,48.6880896,29.4168468,City/Town
Tymar,48.7386471,29.4157993,City/Town
Ziatkivtsi,48.726903,29.4680177,City/Town
Buriany,48.6698165,29.4827292,City/Town
Ziatkivtsi,48.7094376,29.4447124,City/Town
Lisna Poliana,48.6990066,29.434675,City/Town
Karbivka,48.8711844,29.3854338,City/Town
Zarichchia,48.8383565,29.4071999,City/Town
Kysliak,48.8371764,29.4191393,City/Town
Kiblych,48.7186895,29.5713552,City/Town
Meleshkiv,48.7189237,29.52002,City/Town
Ohiivka,48.7120111,29.6078298,City/Town
Krasnopilka,48.7983981,29.7233598,City/Town
Kuzmyntsi,48.7994454,29.167166,City/Town
Pavlivka,48.7732007,29.1364661,City/Town
Sokiltsi,48.7873772,29.1280407,City/Town
Shchurivtsi,48.8077583,29.1458919,City/Town
Kunka,48.8199565,29.2662818,City/Town
Kuna,48.7850083,29.3458708,City/Town
Kochuriv,48.7786912,29.4083902,City/Town
Krutohorb,48.7414178,29.3406538,City/Town
Marianivka,48.7828478,29.3672921,City/Town
Kushchyntsi,48.7547514,29.4743288,City/Town
Berezhne,48.7846249,29.427934,City/Town
Borsuky,48.7477556,29.5251377,City/Town
Hnativka,48.7663219,29.4466028,City/Town
Ladyzhynski Khutory,48.6720555,29.345963,City/Town
Mitlyntsi,48.8747949,29.2967656,City/Town
Karbivske,48.8575774,29.3497468,City/Town
Shura-Mitlynetska,48.8769869,29.3400444,City/Town
Mykhailivka,48.8270034,29.5460587,City/Town
Mytkiv,48.780253,29.6221375,City/Town
Stepove,48.8017578,29.6540193,City/Town
Tyshkivka,48.7950905,29.5849407,City/Town
Tyshkivska Sloboda,48.7782903,29.5854607,City/Town
Naraivka,48.899731,29.6776026,City/Town
Nosivtsi,48.8725514,29.2556535,City/Town
Kosanove,48.8345127,29.1979742,City/Town
Trubochka,48.8448633,29.2134769,City/Town
Semyrichka,48.9050326,29.4800458,City/Town
Rakhny,48.9268876,29.4427088,City/Town
Khorosha,48.9088155,29.4532315,City/Town
Stepashky,48.7322899,29.1465813,City/Town
Kharpachka,48.742173,29.2188057,City/Town
Chechelivka,48.7906228,29.5020457,City/Town
Rakhnivka,48.7827699,29.5482953,City/Town
Tarasivka,48.8090463,29.4847794,City/Town
Yarmolyntsi,48.759814,29.2749022,City/Town
Basalychivka,48.728161,29.2571016,City/Town
Brailiv,49.1064973,28.1638192,City/Town
Brailiv,49.0886331,28.1393112,City/Town
Volodymyrivka,49.1220338,28.1960307,City/Town
Somaky,49.1123621,28.1013293,City/Town
Oleksandrivka,48.9893591,27.9243026,City/Town
Kudiivtsi,48.9823614,27.8691665,City/Town
Poval,48.9861168,27.9449825,City/Town
Shevchenkove,48.972252,27.9071166,City/Town
Bilykivtsi,49.1227166,28.0280017,City/Town
Lopatyntsi,49.1175536,27.9676631,City/Town
Martynivka,49.0878895,28.0134511,City/Town
Demydivka,49.1155685,28.2502852,City/Town
Mohylivka,49.0974622,28.2984864,City/Town
Dubova,49.1990482,27.919431,City/Town
Zhukivtsi,49.0108194,28.1786727,City/Town
Petrivka,49.0097374,28.2187441,City/Town
Sidava,49.0358997,28.1709143,City/Town
Shchuchyntsi,48.9629755,28.2509112,City/Town
Yaroshenka,48.9445283,28.2377619,City/Town
Kamianohirka,48.9198558,28.1089102,City/Town
Oleksiivka,48.953169,28.0678001,City/Town
Karmaliukove,49.1532613,27.9526944,City/Town
Maidan-Holovchynskyi,49.1319316,27.9861927,City/Town
Petrani,49.1743948,27.9103816,City/Town
Katsmaziv,48.9028321,27.9322108,City/Town
Nastasiivka,48.912105,27.9145106,City/Town
Korostivtsi,49.0286372,28.0317301,City/Town
Sloboda-Noskovetska,48.9764053,28.003703,City/Town
Mali Korostivtsi,49.0324775,28.0051096,City/Town
Kurylivtsi,49.1696075,27.9835401,City/Town
Vasylivka,49.1866953,28.0233987,City/Town
Novoselytsia,49.1685582,28.0426012,City/Town
Leliaky,49.0685369,28.1222179,City/Town
Mala Zhmerynka,49.0138009,28.0957953,City/Town
Podilske,49.0508702,28.0707541,City/Town
Tartak,49.0797949,28.0917981,City/Town
Lysohirka,49.2353229,27.9821357,City/Town
Liudavka,49.1533999,28.1237282,City/Town
Luka-Movchanska,48.860671,27.9672615,City/Town
Huta-Movchanska,48.8380374,27.9828969,City/Town
Movchany,48.8785195,28.0184964,City/Town
Noskivtsi,48.9556492,27.9777461,City/Town
Demkiv,48.9685973,28.0231912,City/Town
Potoky,49.0321451,28.2323708,City/Town
Ryzhavka,49.0310138,28.2962277,City/Town
Pochapyntsi,49.2153832,28.046558,City/Town
Zoryntsi,49.2404695,28.0249207,City/Town
Sloboda,49.1968917,28.0389586,City/Town
Riv,49.0804069,28.0615918,City/Town
Mezhyriv,49.0800235,27.9953298,City/Town
Severynivka,49.0456806,27.9448032,City/Town
Holubivka,49.016469,27.9566567,City/Town
Mateikove,49.0392443,27.9517297,City/Town
Khatky,49.0323448,27.9364967,City/Town
Serbynivtsi,49.0899948,27.9245352,City/Town
Sloboda-Mezhyrivska,49.1107352,27.8944541,City/Town
Stanislavchyk,48.9655598,28.1017107,City/Town
Travneve,48.9459247,28.1090153,City/Town
Stodultsi,49.1044645,27.8275243,City/Town
Melnyky,49.0737604,27.7917215,City/Town
Rozhepy,49.1318723,27.8503587,City/Town
Tarasivka,48.9093198,28.1665163,City/Town
Budky,48.958996,28.1986663,City/Town
Voznivtsi,48.8998927,28.2126088,City/Town
Telelyntsi,48.9135164,27.998375,City/Town
Varzhynka,48.9322263,28.0308317,City/Town
Cherniatyn,49.0481575,27.9182478,City/Town
Sloboda-Cherniatynska,49.0255631,27.8844994,City/Town
Tokarivka,49.0681574,27.862074,City/Town
Illintsi,49.1100441,29.2073692,City/Town
Borysivka,49.0802805,29.1875176,City/Town
Nemenka,49.1083926,29.2622903,City/Town
Dashiv,49.0059488,29.4172533,City/Town
Babyn,49.1349906,29.3248482,City/Town
Dankivka,49.1012106,29.3146882,City/Town
Dashiv,49.1215587,29.3200301,City/Town
Bilky,48.9505319,29.294548,City/Town
Pryvilne,48.9686365,29.2627405,City/Town
Vasylivka,49.0235844,29.2624308,City/Town
Kabatnia,49.0222664,29.2372361,City/Town
Horodok,48.9511676,29.5292414,City/Town
Pervomaiske,49.0227303,29.5646434,City/Town
Chortoryia,48.9534972,29.5753703,City/Town
Zhadany,49.0651835,29.3807602,City/Town
Soroka,49.0677899,29.3702119,City/Town
Zhornyshche,49.0611667,29.092549,City/Town
Viazovytsia,49.0437598,29.1288036,City/Town
Shevchenkove,49.0518231,29.0699811,City/Town
Illinetske,49.1789735,29.2093763,City/Town
Romanovo-Khutir,49.1742624,29.1768973,City/Town
Khmelove,49.1857794,29.1344408,City/Town
Kalnyk,49.0414094,29.3883722,City/Town
Shabelnia,48.9961658,29.3174656,City/Town
Kantelyna,49.0743134,29.4446731,City/Town
Kytaihorod,48.9651676,29.4931404,City/Town
Kamianohirka,48.9688615,29.4640633,City/Town
Kopiivka,48.9717856,29.4119768,City/Town
Ivanivka,48.9546986,29.3862341,City/Town
Oleksiivka,48.9388113,29.3962854,City/Town
Krasnenke,49.0229038,29.1342026,City/Town
Lysa Hora,49.0092764,29.2042316,City/Town
Kryshtopivka,48.9112053,29.320062,City/Town
Verbivka,48.9568877,29.3287912,City/Town
Kryshtopivske,48.9232517,29.3451621,City/Town
Kupchyntsi,49.033663,29.476383,City/Town
Yastrubyntsi,49.0633161,29.5140545,City/Town
Voloshkove,49.015826,29.5135391,City/Town
Leukhy,48.9284174,29.6315272,City/Town
Pavlivka,49.1272887,29.1613037,City/Town
Slobidka,49.1383217,29.1214673,City/Town
Pariivka,49.0886976,29.290912,City/Town
Raiky,49.0894572,29.2480071,City/Town
Rosokhovata,49.0043178,29.623526,City/Town
Petro-Markivka,49.0075343,29.6636802,City/Town
Slobodyshche,48.9653214,29.6010611,City/Town
Tiahun,49.1519179,29.2550671,City/Town
Volodymyrivka,49.2205283,29.2600111,City/Town
Khrinivka,49.0606174,29.3066747,City/Town
Parkhomivka,49.033458,29.3080164,City/Town
Chervone,49.0756399,29.3223271,City/Town
Yakubivka,49.0920127,29.134393,City/Town
Luhova,49.1004571,29.0960609,City/Town
Ulanivka,49.0933307,29.1594163,City/Town
Brodetske,49.7582917,28.6277884,City/Town
Dubyna,49.7676862,28.5867786,City/Town
Hlukhivtsi,49.7735988,28.7272323,City/Town
Hlukhivtsi,49.8038791,28.722479,City/Town
Bezimenne,49.6989592,28.5526401,City/Town
Molodizhne,49.6857348,28.4939438,City/Town
Molotkivtsi,49.7075965,28.5245557,City/Town
Khliborobne,49.6701179,28.5498821,City/Town
Chernychky,49.7189894,28.5695501,City/Town
Bilopillia,49.8444577,28.87183,City/Town
Selyshche,49.8359146,28.9165154,City/Town
Vernyhorodok,49.7833541,28.891873,City/Town
Velyke,49.796529,28.9359141,City/Town
Verbolozy,49.8023656,28.851393,City/Town
Vovchynets,49.749469,28.5619647,City/Town
Voskodavyntsi,49.5351921,28.9734649,City/Town
Dubovi Makharyntsi,49.6320543,28.9629434,City/Town
Blazhiivka,49.6092169,28.9544201,City/Town
Zhezheliv,49.7882116,28.656476,City/Town
Zhurbyntsi,49.6518075,28.9551351,City/Town
Zbarazh,49.4930645,28.8510776,City/Town
Zozulyntsi,49.5704791,28.9228106,City/Town
Soshanske,49.565467,28.910785,City/Town
Yosypivka,49.5979863,28.8641993,City/Town
Malyshivka,49.6119831,28.8744839,City/Town
Koziatyn,49.7317075,28.8354512,City/Town
Ivankivtsi,49.7573578,28.8515509,City/Town
Kashperivka,49.8677393,28.8919176,City/Town
Makhnivka,49.7178379,28.6659232,City/Town
Markivtsi,49.6900434,28.6421664,City/Town
Medvedivka,49.747962,28.6650233,City/Town
Mshanets,49.6870416,28.6755721,City/Town
Sadove,49.7179124,28.7226583,City/Town
Kordyshivka,49.6470434,28.8483891,City/Town
Korolivka,49.6722935,28.9038888,City/Town
Prushynka,49.6472274,28.8856274,City/Town
Kumanivka,49.64758,28.7062931,City/Town
Tucha,49.6369702,28.6656026,City/Town
Makharyntsi,49.7123683,28.9217402,City/Town
Mykhailyn,49.5874759,28.7907977,City/Town
Shyroka Hreblia,49.5757887,28.8321389,City/Town
Nepedivka,49.7761468,28.799483,City/Town
Hurivtsi,49.8045373,28.7765853,City/Town
Mykolaivka,49.5945147,28.7535296,City/Town
Velykyi Step,49.6158719,28.7216786,City/Town
Lopatyn,49.5698552,28.7584099,City/Town
Vivsianyky,49.4676543,28.9234945,City/Town
Mukhuvata,49.4749,28.97759,City/Town
Peremoha,49.6656152,28.6400598,City/Town
Nemyryntsi,49.6404139,28.5730696,City/Town
Pykovets,49.677119,28.7508494,City/Town
Pustokha,49.6803472,28.726486,City/Town
Pliakhova,49.7379113,28.7379905,City/Town
Polychyntsi,49.7985408,28.5244416,City/Town
Mala Klitynka,49.7945972,28.4716236,City/Town
Puzyrky,49.825939,28.7721995,City/Town
Derzhanivka,49.8118168,28.8156165,City/Town
Panasivka,49.8365,28.8013791,City/Town
Samhorodok,49.5382242,28.8364258,City/Town
Korytuvata,49.5106383,28.9318296,City/Town
Lozivka,49.4967518,28.8206053,City/Town
Krasne,49.5209678,28.7890062,City/Town
Sestrynivka,49.738602,28.9346341,City/Town
Sokilets,49.6835337,28.8809426,City/Town
Tytusivka,49.6759959,28.8326648,City/Town
Syhnal,49.6812999,28.8136749,City/Town
Ternivka,49.8019951,28.4389631,City/Town
Florianivka,49.6255077,28.8061361,City/Town
Rubanka,49.6621836,28.7804277,City/Town
Yurivka,49.7466593,28.4726093,City/Town
Lystopadivka,49.7568033,28.4147392,City/Town
Kalynivka,49.459983,28.5304736,City/Town
Kalynivka Druha,49.4571584,28.4835782,City/Town
Prylutske,49.4220802,28.5942527,City/Town
Rivnynne,49.4327993,28.5935219,City/Town
Baikivka,49.4998622,28.4058037,City/Town
Hrushkivtsi,49.5124289,28.4296087,City/Town
Hlynsk,49.5809822,28.4737239,City/Town
Panasivka,49.597053,28.4287182,City/Town
Holubivka,49.5531412,28.7369103,City/Town
Harasymivka,49.5412809,28.710009,City/Town
Holendry,49.5649137,28.7195301,City/Town
Chervonyi Step,49.5695992,28.7143217,City/Town
Hushchyntsi,49.4485075,28.3501957,City/Town
Kamianohirka,49.4533465,28.2835871,City/Town
Druzheliubivka,49.46132,28.6070071,City/Town
Druzhne,49.4689516,28.8125265,City/Town
Zhyhalivka,49.5389647,28.3146516,City/Town
Uladivske,49.5871145,28.380068,City/Town
Antonopil,49.61375,28.358155,City/Town
Vyshneve,49.6071756,28.3978718,City/Town
Yabluneve,49.5533663,28.3525606,City/Town
Zalyvanshchyna,49.5707983,28.660236,City/Town
Vesela,49.60756,28.6925089,City/Town
Pervomaiske,49.5777908,28.706393,City/Town
Ivaniv,49.488127,28.3416479,City/Town
Slobidka,49.4890986,28.2924394,City/Town
Myrne,49.4562595,28.7257017,City/Town
Polova Lysiivka,49.4512522,28.6831115,City/Town
Zabara,49.4363271,28.7408009,City/Town
Berezhany,49.533947,28.5026246,City/Town
Kordelivka,49.519279,28.5568032,City/Town
Zahrebelnia,49.538398,28.5497091,City/Town
Kotiuzhyntsi,49.4861622,28.6206682,City/Town
Hulivtsi,49.4928394,28.5966876,City/Town
Tarasivka,49.4819703,28.5869298,City/Town
Lemeshivka,49.6602126,28.4507976,City/Town
Adamivka,49.6464881,28.5272074,City/Town
Mali Kutyshcha,49.6353255,28.4081708,City/Town
Raiky,49.6504486,28.5017476,City/Town
Lisova Lysiivka,49.3665932,28.6088484,City/Town
Liulyntsi,49.6317561,28.4651167,City/Town
Velyki Kutyshcha,49.6295327,28.4387041,City/Town
Miziakiv,49.4001513,28.3679565,City/Town
Miziakivska Slobidka,49.4083405,28.404809,City/Town
Pavlenky,49.3539326,28.3978253,City/Town
Napadivka,49.6141108,28.5538842,City/Town
Monchyntsi,49.6138196,28.5928043,City/Town
Nova Hreblia,49.4628377,28.7666872,City/Town
Pavlivka,49.4409225,28.4691248,City/Town
Pykiv,49.5583711,28.2948591,City/Town
Shepiivka,49.5907105,28.2551402,City/Town
Pysarivka,49.5277558,28.4881078,City/Town
Radivka,49.5909617,28.547701,City/Town
Sofiivka,49.593861,28.5340592,City/Town
Salnyk,49.4009794,28.5379587,City/Town
Khomutyntsi,49.5416516,28.4333462,City/Town
Cherepashyntsi,49.5420409,28.5971577,City/Town
Cherniatyn,49.5073175,28.7355418,City/Town
Kryzhopil,48.377976,28.8697544,City/Town
Andriiashivka,48.4047844,28.7161969,City/Town
Vysoka Hreblia,48.3971609,28.6988291,City/Town
Horby,48.4049261,28.7623604,City/Town
Krynychky,48.4127811,28.7418987,City/Town
Verbka,48.2860773,28.5643415,City/Town
Verbetske,48.3228854,28.5293337,City/Town
Dolynka,48.3048317,28.5974038,City/Town
Shumy,48.255758,28.5539274,City/Town
Holubeche,48.3638997,28.8465272,City/Town
Krasne,48.453083,28.8253015,City/Town
Kniazha Krynytsia,48.4256904,28.8170743,City/Town
Soniachne,48.4102855,28.8311328,City/Town
Horodkivka,48.3783227,28.6865113,City/Town
Hariachkivka,48.33084,28.7521509,City/Town
Odai,48.2584459,28.7454904,City/Town
Dakhtaliia,48.3957614,28.5771182,City/Town
Marianivka,48.4051714,28.6130106,City/Town
Marianivske,48.4045205,28.6430834,City/Town
Dzhuhastra,48.3377958,28.6394009,City/Town
Leonivka,48.3380329,28.5845386,City/Town
Petrunivka,48.3509053,28.5516542,City/Town
Sukha Dolyna,48.3069696,28.6685593,City/Town
Zhabokrych,48.3828411,28.9989673,City/Town
Zabolotne,48.4283229,28.9070174,City/Town
Kisnytsia,48.432331,28.7296713,City/Town
Krasnosilka,48.3378506,28.8313902,City/Town
Vyhoda,48.3127436,28.8400442,City/Town
Zalissia,48.3133466,28.8175811,City/Town
Zelenianka,48.3484408,28.8749074,City/Town
Kryklyvets,48.3221425,28.970024,City/Town
Illivka,48.3372308,28.9297392,City/Town
Kunyche,48.4875488,28.9723293,City/Town
Vilshanka,48.252788,28.6324812,City/Town
Doiarnia,48.2768091,28.6907758,City/Town
Rudnyk,48.2228722,28.5984558,City/Town
Faihorod,48.2428577,28.7117226,City/Town
Pavlivka,48.3257714,29.0658374,City/Town
Savchyne,48.4339006,28.6094192,City/Town
Teklivka,48.4595494,28.6187439,City/Town
Sokolivka,48.4421396,29.0266074,City/Town
Levkiv,48.4380625,29.0638913,City/Town
Ternivka,48.3961381,28.8663666,City/Town
Sharapanivka,48.4884196,28.9006908,City/Town
Lypovets,49.2218704,29.0561231,City/Town
Turbiv,49.3414994,28.7248414,City/Town
Bila,49.3957522,28.9182893,City/Town
Nove,49.4282157,28.8677726,City/Town
Mala Bila,49.3910858,28.8756403,City/Town
Shenderivka,49.409684,28.9210116,City/Town
Bohdanivka,49.3021684,29.1968426,City/Town
Brytske,49.3550779,28.9052684,City/Town
Koniushivka,49.3720781,28.8507939,City/Town
Vakhnivka,49.322291,28.8355857,City/Town
Zhurava,49.3015601,28.8407614,City/Town
Verbivka,49.3809618,28.998205,City/Town
Ksaverivka,49.367375,29.0538901,City/Town
Viitivtsi,49.1052868,28.9847415,City/Town
Pylypenkove,49.1006338,28.9354215,City/Town
Zozivka,49.3363305,28.9865279,City/Town
Zoziv,49.3047907,29.0074712,City/Town
Oleksandrivka,49.3431291,29.0450612,City/Town
Ivanky,49.1024981,29.0702576,City/Town
Pisochyn,49.1046128,29.0164632,City/Town
Kozyntsi,49.2614184,28.7626711,City/Town
Kobylnia,49.2939133,28.7511796,City/Town
Kokhanivka,49.2726268,28.7469025,City/Town
Penkivka,49.2715245,28.770012,City/Town
Kostiantynivka,49.4071713,28.8122648,City/Town
Petrivka,49.4157517,28.8404794,City/Town
Chuprynivka,49.3756259,28.7811986,City/Town
Lozuvata,49.2575471,28.8366163,City/Town
Lukashivka,49.246344,28.9396161,City/Town
Berestivka,49.2276363,28.9591784,City/Town
Nartsyzivka,49.2571127,28.9875446,City/Town
Yasenetske,49.2926456,28.8793866,City/Town
Yasenky,49.2711271,28.9194318,City/Town
Napadivka,49.2743648,29.1295179,City/Town
Vikentiivka,49.2484966,29.0939439,City/Town
Nova Pryluka,49.3737698,28.7107992,City/Town
Popivka,49.1478603,29.0362916,City/Town
Vernianka,49.1384328,29.0712704,City/Town
Pryborivka,49.3074767,28.7201292,City/Town
Kosakivka,49.2903514,28.7390079,City/Town
Rososha,49.2499855,29.1802062,City/Town
Lypovets,49.2493831,29.2270196,City/Town
Syvakivtsi,49.3281816,28.6684888,City/Town
Sobolivka,49.3379488,28.6503559,City/Town
Skytka,49.2161781,29.1493371,City/Town
Teklynivka,49.2110275,29.1239441,City/Town
Khorosha,49.203315,29.1090144,City/Town
Slavna,49.2758791,29.0425852,City/Town
Hannivka,49.2972491,29.079782,City/Town
Ulianivka,49.266201,29.0906984,City/Town
Stara Pryluka,49.38834,28.719662,City/Town
Strutynka,49.1907805,28.9907432,City/Town
Shchaslyva,49.2049372,28.8995458,City/Town
Bilozerivka,49.224273,28.8783964,City/Town
Korolivka,49.2352962,28.8879162,City/Town
Pidlisne,49.1976254,28.8891987,City/Town
Troshcha,49.1563158,29.0877089,City/Town
Hordiivka,49.1712498,29.074454,City/Town
Bahrynivtsi,49.298578,27.9283916,City/Town
Honcharivka,49.3131446,27.8640137,City/Town
Birkiv,49.2840259,28.0805402,City/Town
Zaluzhne,49.2666304,28.0305076,City/Town
Kilianivka,49.2776007,27.998414,City/Town
Verbivka,49.4123544,28.1526638,City/Town
Bruslyniv,49.4172795,28.1971808,City/Town
Novoselytsia,49.3814692,28.1808461,City/Town
Horbivtsi,49.253265,27.9268865,City/Town
Antonivka,49.24243,27.9297969,City/Town
Vinnykivtsi,49.2372034,27.8867304,City/Town
Sokolivka,49.2677989,27.8577601,City/Town
Hromadske,49.3800785,27.9466668,City/Town
Kusykivtsi,49.414639,27.9231156,City/Town
Dashkivtsi,49.301975,28.2628597,City/Town
Iskrynia,49.3320088,28.2458853,City/Town
Lukashivka,49.2717391,28.2682013,City/Town
Diakivtsi,49.3899978,27.8688618,City/Town
Havryshivka,49.3655931,27.8262221,City/Town
Zhuravne,49.5023208,28.1872599,City/Town
Oleksandrivka,49.4879609,28.1507196,City/Town
Ivcha,49.3990304,28.0391242,City/Town
Trybukhy,49.437519,28.0211843,City/Town
Kozhukhiv,49.4593185,27.9295385,City/Town
Krasnosilka,49.4302651,27.9889277,City/Town
Lisne,49.4628468,27.9974223,City/Town
Kulyha,49.3329747,28.0025391,City/Town
Ukrainka,49.2945816,28.0147035,City/Town
Litynka,49.3506332,27.926881,City/Town
Yablunivka,49.340579,27.8690846,City/Town
Malynivka,49.324285,28.1757796,City/Town
Balyn,49.3511651,28.1974128,City/Town
Vyshenka,49.3520799,28.1609644,City/Town
Petryk,49.294997,28.1994251,City/Town
Mykulyntsi,49.2557148,28.1470724,City/Town
Rizhok,49.2369528,28.1532539,City/Town
Osolynka,49.4198131,28.1043601,City/Town
Kamianka,49.444016,28.0945783,City/Town
Mykolaivka,49.4369458,28.1295934,City/Town
Penkivka,49.3707563,28.2652169,City/Town
Bruslynivka,49.3907127,28.2465527,City/Town
Pidlisne,49.3534395,28.3188574,City/Town
Supruniv,49.391839,28.3081137,City/Town
Sosny,49.358599,28.076382,City/Town
Bilozirka,49.3242666,28.038589,City/Town
Horodyshche,49.3709994,28.0969836,City/Town
Litynski Khutory,49.3439863,28.0498689,City/Town
Tesy,49.4622406,27.7878239,City/Town
Ivanivtsi,49.4613716,27.8283198,City/Town
Luka,49.4396447,27.8112709,City/Town
Osichok,49.4515066,27.7639225,City/Town
Uladivka,49.4990577,28.2175561,City/Town
Ivanopil,49.4778096,28.2135148,City/Town
Maidan-Bobryk,49.4431806,28.2209438,City/Town
Matiashivka,49.4680694,28.2470051,City/Town
Pykivska Slobidka,49.4516571,28.1528327,City/Town
Shevchenka,49.4526151,27.8704446,City/Town
Lysohirka,49.4704366,27.8689022,City/Town
Medvedivka,49.4273885,27.881391,City/Town
Vendychany,48.6089175,27.7934476,City/Town
Borshchivtsi,48.5526869,27.8272343,City/Town
Pidlisne,48.5818332,27.7733858,City/Town
Tarasivka,48.6144583,27.7721012,City/Town
Bandyshivka,48.4063818,27.997509,City/Town
Bernashivka,48.5806859,27.4850226,City/Town
Bronnytsia,48.3931654,27.9039776,City/Town
Hryhorivka,48.4268213,27.9199519,City/Town
Kryshtofivka,48.4144831,27.883748,City/Town
Nova Hryhorivka,48.4076387,27.924984,City/Town
Olenivka,48.3831456,27.9848863,City/Town
Skazyntsi,48.5079918,27.9000987,City/Town
Voievodchyntsi,48.5015301,27.8758961,City/Town
Koshtulia,48.5440077,27.9475091,City/Town
Hrushka,48.4413015,27.9966267,City/Town
Vilne,48.5030421,27.9776197,City/Town
Sadky,48.4751586,28.0001457,City/Town
Sloboda-Shlyshkovetska,48.4605068,27.9527578,City/Town
Zherebylivka,48.5991082,27.6394557,City/Town
Irakliivka,48.6238823,27.6415486,City/Town
Karpivka,48.4769076,27.8518779,City/Town
Kozliv,48.4787989,27.5219938,City/Town
Lypchany,48.5191876,27.4918119,City/Town
Nahoriany,48.4953345,27.5691868,City/Town
Koneva,48.5500292,27.8723632,City/Town
Sadova,48.5299192,27.9123026,City/Town
Kreminne,48.4644477,27.5998638,City/Town
Krychanivka,48.5882901,27.8532911,City/Town
Kukavka,48.6013913,27.7078894,City/Town
Lomaziv,48.6424028,27.6948207,City/Town
Nyzhchyi Olchedaiv,48.6316376,27.6692967,City/Town
Mervyntsi,48.3753625,28.0437781,City/Town
Novomykilsk,48.411818,28.0746171,City/Town
Nemiia,48.4606369,27.7608067,City/Town
Ozaryntsi,48.5420818,27.8065115,City/Town
Pylypy,48.4828696,27.9294389,City/Town
Petrivka,48.5119503,27.9509599,City/Town
Shlyshkivtsi,48.4339963,27.9154494,City/Town
Serebriia,48.4632519,27.7180973,City/Town
Serebryntsi,48.5806079,27.7044426,City/Town
Hrabarivka,48.5406729,27.729435,City/Town
Slidy,48.5885938,27.9417044,City/Town
Sloboda-Yaryshivska,48.5354017,27.6338493,City/Town
Yastrubna,48.5741509,27.6384281,City/Town
Subotivka,48.3294685,27.9946168,City/Town
Sadkivtsi,48.362533,27.9286915,City/Town
Suhaky,48.6340569,27.870161,City/Town
Tropove,48.6533469,27.9431834,City/Town
Khonkivtsi,48.5514554,27.5501655,City/Town
Yurkivtsi,48.4967563,27.6953339,City/Town
Yaruha,48.3309847,28.0429238,City/Town
Ivonivka,48.3660367,28.0490881,City/Town
Yaryshiv,48.5182313,27.6316484,City/Town
Liadova,48.4920754,27.626202,City/Town
Murovani Kurylivtsi,48.7160947,27.5318355,City/Town
Bakhtyn,48.8087443,27.4861977,City/Town
Bakhtynok,48.8083813,27.4687404,City/Town
Voronivtsi,48.8357604,27.4307767,City/Town
Novosilka,48.8261109,27.4619009,City/Town
Verbovets,48.722121,27.4239342,City/Town
Vynohradne,48.6889659,27.4522608,City/Town
Vyshcheolchedaiv,48.7270629,27.6772324,City/Town
Halaikivtsi,48.6602457,27.4690454,City/Town
Volodymyrivka,48.6778633,27.4948945,City/Town
Dereshova,48.7740865,27.5169069,City/Town
Dolyniany,48.8221029,27.584049,City/Town
Kryvokhyzhyntsi,48.8062687,27.5595493,City/Town
Zhvan,48.6029623,27.4856416,City/Town
Kukurivka,48.5816291,27.5004641,City/Town
Konyshchiv,48.885017,27.4911225,City/Town
Znamenivka,48.8672087,27.4872797,City/Town
Yahidne,48.8477093,27.4472694,City/Town
Kotiuzhany,48.7700886,27.7016437,City/Town
Blakytne,48.7526425,27.7409162,City/Town
Vilshanka,48.8013346,27.6996318,City/Town
Kurashivtsi,48.7748429,27.5961852,City/Town
Balkivka,48.7624327,27.5392086,City/Town
Dihtiarka,48.7423772,27.5867851,City/Town
Posukhiv,48.7566443,27.5644801,City/Town
Luchynets,48.7060939,27.8340284,City/Town
Luchynchyk,48.7041934,27.8053487,City/Town
Hlyboka Dolyna,48.750403,27.7669324,City/Town
Mykhailivtsi,48.8762264,27.5226772,City/Town
Krasne,48.8525129,27.5119658,City/Town
Yar,48.8668455,27.5414526,City/Town
Morozivka,48.7424781,27.6327836,City/Town
Naddnistrianske,48.6530543,27.426707,City/Town
Nemerche,48.6761379,27.7235944,City/Town
Vinozh,48.6950811,27.7011372,City/Town
Kukavka,48.646825,27.74537,City/Town
Kamianetski Khutory,48.7122756,27.7461495,City/Town
Nemerche,48.6823461,27.7575859,City/Town
Strusove,48.6566052,27.7688768,City/Town
Obukhiv,48.7973504,27.7598501,City/Town
Kotiuzhany,48.7875513,27.7590136,City/Town
Malyi Obukhiv,48.7791958,27.7629202,City/Town
Berliadka,48.8139725,27.7787887,City/Town
Pryvitne,48.7883805,27.8110614,City/Town
Petrymany,48.7762391,27.4653867,City/Town
Zhytnyky,48.7438357,27.4585106,City/Town
Zolotohirka,48.7562521,27.3947815,City/Town
Svydova,48.7776336,27.4319527,City/Town
Ploske,48.6907775,27.8452976,City/Town
Popeliukhy,48.6851118,27.6606283,City/Town
Biliany,48.7025483,27.6215695,City/Town
Rozdolivka,48.7169622,27.5681388,City/Town
Druzhba,48.6557808,27.5894137,City/Town
Perekoryntsi,48.7148846,27.610938,City/Town
Rivne,48.6208036,27.5635961,City/Town
Nyshivtsi,48.5957972,27.533986,City/Town
Snitkiv,48.8104202,27.6379598,City/Town
Riasne,48.8205196,27.6294636,City/Town
Stepanky,48.7751269,27.8560546,City/Town
Horai,48.7611239,27.8226435,City/Town
Nemyriv,48.9683178,28.8362581,City/Town
Bratslav,48.8189067,28.9469015,City/Town
Sytkivtsi,48.9087357,29.1959129,City/Town
Bairakivka,49.0570392,28.7794134,City/Town
Hlynianets,49.0731775,28.7494909,City/Town
Dubmaslivka,49.0413565,28.7862298,City/Town
Bobliv,49.0460319,28.8218407,City/Town
Bondurivka,49.0348446,29.0498845,City/Town
Marianivka,49.0237093,29.0471126,City/Town
Buhakiv,48.9030659,28.9307797,City/Town
Velyka Bushynka,48.9188916,28.8481558,City/Town
Berezivka,48.9340657,28.8761357,City/Town
Volovodivka,49.131511,28.9260573,City/Town
Shevchenka,49.1564434,28.8997895,City/Town
Vovchok,48.8405883,28.9299501,City/Town
Dovzhok,48.8294242,28.9729445,City/Town
Vorobiivka,48.9234423,28.6790705,City/Town
Nova Mykolaivka,48.9315552,28.6554097,City/Town
Vyshcha Kropyvna,48.9022677,29.1453444,City/Town
Huta,48.9052679,29.1173267,City/Town
Vyshkivtsi,48.8377814,28.8237681,City/Town
Vyhnanka,48.8615778,28.8140853,City/Town
Zabuzhzhia,48.8764539,28.7715305,City/Town
Holovenky,49.0310002,28.8529587,City/Town
Hrabovets,48.8194262,29.0107857,City/Town
Hranitne,48.8527643,28.9967178,City/Town
Sorokoduby,48.8161512,29.0236892,City/Town
Hrynenky,48.7743351,28.903488,City/Town
Dzhuryntsi,48.9214122,29.2526428,City/Town
Zarudyntsi,48.9241417,28.9330492,City/Town
Vovchok,48.9064528,28.8798581,City/Town
Zelenianka,48.9089281,28.9629981,City/Town
Yosypenky,48.9134043,28.9048132,City/Town
Karolina,48.9279262,28.9623538,City/Town
Ozero,48.9359165,28.9067542,City/Town
Ziankivtsi,48.816762,29.0925094,City/Town
Antsypolivka,48.8025586,29.1025504,City/Town
Podilske,48.9931736,28.9067725,City/Town
Korovaina,48.9879045,28.9416393,City/Town
Monastyrok,48.967932,28.8640419,City/Town
Sazhky,48.9529971,28.9130094,City/Town
Selevyntsi,48.9748247,28.8804425,City/Town
Kovalivka,49.0261319,28.8863836,City/Town
Mezhyhirka,49.0735952,28.9385893,City/Town
Potoky,49.0636729,28.996112,City/Town
Korzhivka,48.8721433,28.9803821,City/Town
Horodnytsia,48.888535,28.9847584,City/Town
Korzhiv,48.8565868,29.0090449,City/Town
Krykivtsi,48.98676,28.9946808,City/Town
Budky,48.9525879,28.9736068,City/Town
Danylky,48.9824569,28.9619862,City/Town
Sorokotiazhyntsi,48.9647176,28.9575708,City/Town
Kudlai,49.0325442,28.732798,City/Town
Dubovets,49.0547106,28.7256728,City/Town
Chaulske,49.072031,28.6930465,City/Town
Monastyrske,48.8284647,28.8892093,City/Town
Yastrubykha,48.8052576,28.8674512,City/Town
Medvezha,48.9899935,28.7711003,City/Town
Hostynne,49.0062528,28.7555242,City/Town
Melnykivtsi,48.9246374,29.0641061,City/Town
Chervone,48.92382,29.0222533,City/Town
Novi Obykhody,48.8654498,29.0197259,City/Town
Samchyntsi,48.8733944,29.0280522,City/Town
Mukhivtsi,48.948314,28.7978339,City/Town
Mala Bushynka,48.8856662,28.7568359,City/Town
Sholudky,48.9082868,28.7937293,City/Town
Nykyforivtsi,49.0134971,28.6908591,City/Town
Luka,49.0180875,28.7125091,City/Town
Obidne,49.1412984,28.8685044,City/Town
Novoselivka,48.7734873,29.0643451,City/Town
Hlynske,48.7466933,29.0678155,City/Town
Ometyntsi,48.9677231,29.1050664,City/Town
Raihorod,48.8786333,29.0798159,City/Town
Nyzhcha Kropyvna,48.8548029,29.1437742,City/Town
Slobidka,48.8977004,29.0650462,City/Town
Ruban,49.0084527,28.9772126,City/Town
Semenky,48.8415691,29.1090378,City/Town
Marianivka,48.8703149,29.0620443,City/Town
Salyntsi,48.8480829,29.0498916,City/Town
Skrytske,48.7745608,29.012619,City/Town
Shura,48.7685352,28.968596,City/Town
Sokilets,48.8683314,28.7207569,City/Town
Hvozdiv,48.8979262,28.6414518,City/Town
Oleksiivka,48.8821471,28.6684036,City/Town
Spodakhy,49.0461678,28.883741,City/Town
Strilchyntsi,48.9516275,28.6921678,City/Town
Chukiv,48.8929295,28.8813255,City/Town
Ostapkivtsi,48.8854079,28.8210518,City/Town
Perepelychchia,48.8495261,28.8805749,City/Town
Yurkivtsi,48.9562825,29.2142582,City/Town
Rubizhne,48.9477156,29.1766847,City/Town
Yazvynky,49.0205118,28.8184892,City/Town
Hunka,49.0068748,28.8174683,City/Town
Kozakivka,49.0310286,28.7634623,City/Town
Suprunivka,49.0117214,28.7729964,City/Town
Orativ,49.1949451,29.5239604,City/Town
Pryberezhne,49.1770543,29.491195,City/Town
Yakymivka,49.2859228,29.5265427,City/Town
Buhaivka,49.3108476,29.5766026,City/Town
Balabanivka,49.1145191,29.6123329,City/Town
Bohdanivka,49.1261893,29.5703234,City/Town
Linechchyna,49.1396541,29.5787747,City/Town
Stupky,49.098261,29.6621657,City/Town
Velyka Rostivka,49.2440576,29.3723171,City/Town
Zhyvotivka,49.227988,29.5316773,City/Town
Zaruddia,49.1540764,29.4816191,City/Town
Honoratka,49.1438724,29.5209519,City/Town
Kozhanka,49.296718,29.2764345,City/Town
Bartoshivka,49.3006304,29.3249235,City/Town
Koshlany,49.1034479,29.400827,City/Town
Dibrovyntsi,49.0992976,29.3484779,City/Town
Lopatynka,49.1918609,29.407485,City/Town
Tarasivka,49.2082844,29.4299344,City/Town
Medivka,49.2615671,29.3402367,City/Town
Novozhyvotiv,49.2727234,29.5431748,City/Town
Orativ,49.1757959,29.3927773,City/Town
Osychna,49.2230446,29.627438,City/Town
Ochytkiv,49.3062324,29.2214851,City/Town
Liulyntsi,49.3223964,29.2136011,City/Town
Pidvysoke,49.0738842,29.5956912,City/Town
Tarasivka,49.0473256,29.5978062,City/Town
Rozhychna,49.1833178,29.6201965,City/Town
Orativka,49.1752545,29.590248,City/Town
Sabarivka,49.1392005,29.6568802,City/Town
Divochyna,49.122978,29.7109253,City/Town
Skala,49.3025305,29.4037362,City/Town
Skomoroshky,49.3325176,29.4344888,City/Town
Verbivka,49.2867489,29.4364791,City/Town
Kamianohirka,49.2970182,29.4698178,City/Town
Solohubivka,49.249703,29.4527213,City/Town
Stryzhakiv,49.158247,29.3506821,City/Town
Synarna,49.1588873,29.3108208,City/Town
Uharove,49.2236056,29.6932138,City/Town
Berezivka,49.2048867,29.6742015,City/Town
Kalenivka,49.2315025,29.670721,City/Town
Frontivka,49.0981258,29.5642949,City/Town
Chahiv,49.2169996,29.3265546,City/Town
Mala Rostivka,49.2266602,29.3514189,City/Town
Mervyn,49.1906818,29.3673342,City/Town
Chahivske,49.2297193,29.2837615,City/Town
Chovnovytsia,49.3590853,29.4706556,City/Town
Zakrynychchia,49.3384606,29.4979119,City/Town
Ozerne,49.3831145,29.4911513,City/Town
Stepove,49.3900969,29.4649292,City/Town
Cherniavka,49.3289377,29.3607436,City/Town
Hannivka,49.3773634,29.3526755,City/Town
Yushkivtsi,49.1632514,29.6910505,City/Town
Yablunovytsia,49.1352093,29.4024504,City/Town
Skybyn,49.1544232,29.3978749,City/Town
Pishchanka,48.2090262,28.8875451,City/Town
Trudove,48.194781,28.801962,City/Town
Rudnytsia,48.2553675,28.9354255,City/Town
Bolhan,48.141113,28.7346119,City/Town
Honorivka,48.1774513,29.0051845,City/Town
Brokhvychi,48.1867515,28.9348741,City/Town
Kozatske,48.1461773,29.022686,City/Town
Horodyshche,48.2651549,29.0747571,City/Town
Hrabarivka,48.1706909,28.6451973,City/Town
Verkhnia Slobidka,48.1811087,28.588581,City/Town
Dmytrashkivka,48.2011291,28.774019,City/Town
Mykolaivka,48.195359,28.8123173,City/Town
Kukuly,48.18486,28.758871,City/Town
Myroliubivka,48.2608543,28.833925,City/Town
Rudnytske,48.257195,29.0063552,City/Town
Stavky,48.2626723,28.8843908,City/Town
Studena,48.1440777,28.8550279,City/Town
Zatyshne,48.1558481,28.8970273,City/Town
Paliiove,48.1745609,28.8551622,City/Town
Piatykhatka,48.1614125,28.8350942,City/Town
Chabanove,48.166946,28.8435829,City/Town
Chervona Poliana,48.099617,28.9020844,City/Town
Trybusivka,48.1844105,28.6542107,City/Town
Kalynivka,48.2172444,28.653876,City/Town
Chornomyn,48.2222502,29.0100635,City/Town
Kozlivka,48.2254812,29.057084,City/Town
Popeliukhy,48.2155855,28.9772241,City/Town
Rybky,48.1866978,29.0400874,City/Town
Yavorivka,48.3002548,28.9209214,City/Town
Pohrebyshche,49.4885279,29.2666031,City/Town
Adamivka,49.4345531,29.3183802,City/Town
Pohrebyshche Pershe,49.4409365,29.2967527,City/Town
Andrushivka,49.3565871,29.2063378,City/Town
Pariivka,49.3414605,29.1778505,City/Town
Filiutka,49.3342336,29.2622952,City/Town
Babyntsi,49.5608586,29.4803398,City/Town
Bystryk,49.5365586,29.4372727,City/Town
Bilashky,49.5090565,29.1611961,City/Town
Vyshnivka,49.5168522,29.1144226,City/Town
Smarzhyntsi,49.5348598,29.1447066,City/Town
Borshchahivka,49.4876122,29.53756,City/Town
Skybyntsi,49.5300236,29.5011054,City/Town
Hopchytsia,49.526609,29.2777768,City/Town
Dziunkiv,49.4602695,29.4525593,City/Town
Dovhalivka,49.4216936,29.5207372,City/Town
Zbarzhivka,49.4583588,29.5257,City/Town
Obozivka,49.4605264,29.4731873,City/Town
Travneve,49.4648125,29.5033711,City/Town
Levkivka,49.4654216,29.0033233,City/Town
Ordyntsi,49.4322769,29.0557191,City/Town
Monchyn,49.4233274,28.9774588,City/Town
Hryhorivka,49.4526219,28.8700312,City/Town
Sopyn,49.4248304,28.9412938,City/Town
Morozivka,49.6106036,29.3857091,City/Town
Bukhny,49.6112614,29.3244891,City/Town
Novofastiv,49.5694619,29.4611521,City/Town
Burkivtsi,49.5536503,29.3802328,City/Town
Ocheretnia,49.3485419,29.1275324,City/Town
Dovzhok,49.3749128,29.1362042,City/Town
Pohrebyshche Druhe,49.36454,29.1012659,City/Town
Pavlivka,49.4567055,29.3621716,City/Town
Krupoderyntsi,49.5087217,29.3354374,City/Town
Pedosy,49.4320068,29.2431996,City/Town
Malynky,49.443856,29.180906,City/Town
Plyskiv,49.3644717,29.2748889,City/Town
Rozkopane,49.4186599,29.3771023,City/Town
Sarazhyntsi,49.5047171,29.3919559,City/Town
Popivtsi,49.5262242,29.3763394,City/Town
Kuriantsi,49.5086983,29.4563973,City/Town
Yunashky,49.4991268,29.4102023,City/Town
Snizhna,49.6130049,29.4651109,City/Town
Zadorozhnie,49.5913666,29.4545346,City/Town
Ozerna,49.6401472,29.5068028,City/Town
Spychyntsi,49.4095969,29.1550035,City/Town
Vasylkivtsi,49.4151112,29.2194242,City/Town
Stanylivka,49.5135281,29.0056589,City/Town
Talalai,49.5146766,29.0622407,City/Town
Starostyntsi,49.5651372,29.2286265,City/Town
Ivanky,49.5440876,29.2059082,City/Town
Lishchyntsi,49.5693087,29.1781497,City/Town
Nadrossia,49.4068456,29.0908254,City/Town
Bulai,49.415673,29.1093869,City/Town
Cheremoshne,49.462979,29.1207216,City/Town
Veselivka,49.4586402,29.0791737,City/Town
Kuleshiv,49.491239,29.116872,City/Town
Stepanky,49.4850051,29.0842851,City/Town
Shyrmivka,49.5649296,29.1000144,City/Town
Svytyntsi,49.5693499,29.0311441,City/Town
Sosnivka,49.5770584,29.0012714,City/Town
Teplyk,48.6647888,29.742946,City/Town
Bdzhilna,48.6149639,29.7453447,City/Town
Chervona Dolyna,48.6148324,29.7234744,City/Town
Bridok,48.5844325,29.5161206,City/Town
Velyka Mochulka,48.6327061,29.588666,City/Town
Panchyshyne,48.659158,29.5529911,City/Town
Shevchenka,48.6680585,29.5921489,City/Town
Veselivka,48.6153003,29.8615747,City/Town
Zavadivka,48.5135826,29.5461404,City/Town
Zaluzhzhia,48.6458685,29.7143467,City/Town
Kyvachivka,48.7692168,29.7009335,City/Town
Dubyna,48.7961348,29.6612799,City/Town
Tsvilikhivka,48.7596536,29.6784777,City/Town
Komarivka,48.730361,29.8344603,City/Town
Ivaniv,48.7452844,29.8176031,City/Town
Rozkoshivka,48.7551674,29.7927163,City/Town
Shevchenkivka,48.7589102,29.8429448,City/Town
Kostiukivka,48.577141,29.8328876,City/Town
Mala Mochulka,48.6338326,29.6423419,City/Town
Mysharivka,48.5931893,29.6686534,City/Town
Metanivka,48.543892,29.5442736,City/Town
Orlivka,48.5983062,29.5870486,City/Town
Petrashivka,48.5296526,29.4639111,City/Town
Pobirka,48.5861754,29.4328505,City/Town
Pohorila,48.6333012,29.9556362,City/Town
Kyzymy,48.6100007,29.9384492,City/Town
Polohy,48.5740864,29.7562233,City/Town
Lozovata,48.5704306,29.7101647,City/Town
Rososha,48.6550675,29.8656342,City/Town
Kamianky,48.6800773,29.8492548,City/Town
Kozhukhivka,48.678136,29.8947552,City/Town
Sasha,48.6187801,29.8177442,City/Town
Sobolivka,48.6199938,29.4843034,City/Town
Antonivka,48.6438884,29.5080754,City/Town
Sokyriany,48.5797528,29.7893823,City/Town
Leninka,48.5455388,29.8011583,City/Town
Stepanivka,48.6739568,29.672283,City/Town
Vazhne,48.6975071,29.6901616,City/Town
Karabelivka,48.7035906,29.6335501,City/Town
Kublych,48.675637,29.6407957,City/Town
Markivka,48.7245917,29.6828581,City/Town
Strazhhorod,48.6912095,29.768202,City/Town
Rozkoshivka,48.7163081,29.77444,City/Town
Topolivka,48.7595162,29.7623738,City/Town
Udych,48.6352121,29.9114297,City/Town
Chervonyi Kut,48.6182728,29.8975439,City/Town
Shymanivka,48.662417,29.4342495,City/Town
Tomashpil,48.5409803,28.5160087,City/Town
Horyshkivske,48.610769,28.5550462,City/Town
Vapniarka,48.5348995,28.7467151,City/Town
Oleksandrivka,48.6390263,28.521854,City/Town
Blahodatne,48.646539,28.4892031,City/Town
Zabiliany,48.6360221,28.559801,City/Town
Antonivka,48.5352855,28.4241161,City/Town
Velyka Rusava,48.6214774,28.4396488,City/Town
Verbova,48.5051448,28.7430148,City/Town
Vyla,48.4959194,28.4390294,City/Town
Hnatkiv,48.4502065,28.483511,City/Town
Rusava,48.4698818,28.4418028,City/Town
Vysoke,48.4842536,28.7909591,City/Town
Horyshkivka,48.6391669,28.61421,City/Town
Kyslytske,48.5454204,28.6801118,City/Town
Kolodenka,48.5242884,28.7251234,City/Town
Komarhorod,48.5355857,28.6129935,City/Town
Komarhorodske,48.5564654,28.6099776,City/Town
Zholoby,48.5952419,28.6120641,City/Town
Lypivka,48.5283697,28.5716519,City/Town
Yaryshivka,48.530064,28.5306398,City/Town
Markivka,48.4644267,28.7158793,City/Town
Antopil,48.4693618,28.6815546,City/Town
Netrebivka,48.4091291,28.5449634,City/Town
Palanka,48.6003714,28.6538184,City/Town
Vapniarky,48.588354,28.6755765,City/Town
Kasianivka,48.6173374,28.6576452,City/Town
Penkivka,48.5783616,28.4242216,City/Town
Pylypy-Borivski,48.4989318,28.3451096,City/Town
Kalynka,48.5100974,28.368634,City/Town
Rakova,48.5261219,28.5053007,City/Town
Rozhniativka,48.5727497,28.3482969,City/Town
Stina,48.450366,28.4149975,City/Town
Yalanets,48.3841866,28.4908233,City/Town
Trostianets,48.511741,29.2164009,City/Town
Oleksandrivka,48.5255299,29.0984278,City/Town
Demkivka,48.543071,29.0712626,City/Town
Demkivske,48.5704908,29.0812755,City/Town
Budy,48.469348,29.2373707,City/Town
Dubyna,48.4470777,29.2732625,City/Town
Verkhivka,48.4447911,29.1608641,City/Town
Verkhivske,48.4325606,29.1246108,City/Town
Kozyntsi,48.4495584,29.1518228,City/Town
Hlybochok,48.5304135,29.3992738,City/Town
Hlybochanske,48.5234622,29.3998463,City/Town
Skybyntsi,48.5597072,29.3653046,City/Town
Hordiivka,48.5236938,29.3159723,City/Town
Velyka Stratiivka,48.5133479,29.278581,City/Town
Mytkivka,48.5551934,29.3482591,City/Town
Demydivka,48.453592,29.3445906,City/Town
Illiashivka,48.540339,28.9517333,City/Town
Krasnohirka,48.541709,28.9059212,City/Town
Pidlisne,48.5478955,28.9837544,City/Town
Kapustiany,48.5283208,29.0262747,City/Town
Letkivka,48.524591,29.1529405,City/Town
Severynivka,48.5162036,29.1869516,City/Town
Nova Obodivka,48.4162642,29.2522232,City/Town
Mala Stratiivka,48.413717,29.2326755,City/Town
Obodivka,48.404658,29.2455541,City/Town
Berezhanka,48.3963399,29.1829176,City/Town
Olianytsia,48.613982,29.228221,City/Town
Ladyzhynske,48.6325773,29.2314633,City/Town
Savyntsi,48.4795829,29.062578,City/Town
Dovzhok,48.4598057,29.062343,City/Town
Zelenyi Dovzhok,48.4581035,29.0189119,City/Town
Kytaihorod,48.4876675,29.0009548,City/Town
Torkanivka,48.3243904,29.1467291,City/Town
Dubivka,48.285582,29.1229815,City/Town
Trostianchyk,48.5199914,29.3717346,City/Town
Tsybulivka,48.393166,29.1158819,City/Town
Chetvertynivka,48.5889553,29.2853328,City/Town
Tulchyn,48.671537,28.8595288,City/Town
Kyrnasivka,48.5936372,28.9754779,City/Town
Markove,48.6175675,29.0125737,City/Town
Shpykiv,48.789253,28.5631301,City/Town
Vynokurnia,48.7688826,28.5504101,City/Town
Klenove,48.7816355,28.5205547,City/Town
Sosnivka,48.8134244,28.6039337,City/Town
Shpykivka,48.7681019,28.6192356,City/Town
Hannopil,48.6327433,28.9394055,City/Town
Bilousivka,48.6649018,29.1158521,City/Town
Bortnyky,48.7897044,28.7943913,City/Town
Dranka,48.5793204,28.8666585,City/Town
Odai,48.5864138,28.89898,City/Town
Zhuravlivka,48.6304169,28.7203641,City/Town
Maiaky,48.6039469,28.7200032,City/Town
Zaozerne,48.6940539,29.149655,City/Town
Vasylivka,48.7047997,29.1063327,City/Town
Zarichne,48.7002156,28.7852033,City/Town
Bohdanivka,48.6415525,29.1106767,City/Town
Ulianivka,48.6100436,29.1398739,City/Town
Kynashiv,48.6715245,28.8865955,City/Town
Kapky,48.6565651,28.778829,City/Town
Mazurivka,48.6641831,28.8206708,City/Town
Marusyne,48.65025,28.7954184,City/Town
Nestervarka,48.6885927,28.8580331,City/Town
Khmelnytske,48.6518711,28.8155111,City/Town
Kleban,48.6639146,29.0286947,City/Town
Huty,48.6726144,29.0903841,City/Town
Fedkivka,48.6261833,29.0225301,City/Town
Kopiivka,48.7071795,28.715405,City/Town
Huralnia,48.6862036,28.7365666,City/Town
Shchuri,48.6944119,28.7682985,City/Town
Kryshchyntsi,48.7318435,28.9080199,City/Town
Levkivtsi,48.7426074,28.5315683,City/Town
Burdii,48.7198224,28.5291816,City/Town
Mykhailivka,48.7221362,29.0317371,City/Town
Mankivka,48.7259908,29.1023522,City/Town
Pechera,48.8520009,28.7222496,City/Town
Petrashivka,48.8012699,28.6688782,City/Town
Dankivka,48.8318593,28.7294609,City/Town
Silnytsia,48.7179872,28.6287689,City/Town
Suvorovske,48.6266014,28.8445708,City/Town
Pestelia,48.6300176,28.885706,City/Town
Tarasivka,48.7297045,28.8363652,City/Town
Tymanivka,48.5794498,28.8426864,City/Town
Torkiv,48.7698463,28.6792346,City/Town
Kholodivka,48.7097241,28.9771427,City/Town
Shura-Kopiivska,48.6824769,28.6659886,City/Town
Kalynivka,48.6410573,28.6698343,City/Town
Yurkivka,48.6889344,28.5775624,City/Town
Stanislavka,48.6623705,28.6172941,City/Town
Hnivan,49.0867954,28.3519545,City/Town
Hryzhyntsi,49.0877389,28.39646,City/Town
Tyvriv,49.0143983,28.5035963,City/Town
Sutysky,49.0423237,28.4067537,City/Town
Bushynka,48.8331913,28.4537188,City/Town
Huta-Bushynska,48.8372296,28.4126395,City/Town
Vasylivka,48.9875305,28.4354233,City/Town
Zarvanka,48.9934136,28.4663611,City/Town
Kurnyky,48.9918468,28.4027669,City/Town
Maidan,48.9883669,28.4171245,City/Town
Velyka Vulyha,48.8588392,28.5883909,City/Town
Voroshylivka,49.040429,28.3287349,City/Town
Borskiv,49.0245141,28.3826133,City/Town
Maianiv,49.0124754,28.323216,City/Town
Hryshivtsi,48.9499261,28.3474511,City/Town
Kobeletske,48.9351073,28.3012082,City/Town
Dzvonykha,48.9848138,28.568505,City/Town
Dovhopolivka,49.024611,28.5389658,City/Town
Klishchiv,49.0084785,28.5631796,City/Town
Zhakhnivka,48.9328975,28.575716,City/Town
Ivonivtsi,48.9069964,28.5874407,City/Town
Onytkivtsi,48.9402025,28.5339389,City/Town
Ivankivtsi,48.9589388,28.3826746,City/Town
Krasnianka,48.8621572,28.3370378,City/Town
Dubyna,48.8505415,28.3113188,City/Town
Kruhy,48.837454,28.3300227,City/Town
Koliukhiv,48.9860856,28.6352398,City/Town
Kanava,48.9732493,28.6563029,City/Town
Sokolyntsi,49.0059558,28.5924151,City/Town
Mala Vulyha,48.8584306,28.6333859,City/Town
Pidlisivka,48.8412949,28.6470425,City/Town
Polova Slobidka,48.8337798,28.6272466,City/Town
Rohizna,48.8863793,28.6264972,City/Town
Markivka,49.0743553,28.6118991,City/Town
Kalnyshivka,49.0815515,28.6424195,City/Town
Fedorivka,49.0594001,28.6159767,City/Town
Nove Misto,48.901513,28.391021,City/Town
Iskrivka,48.8870878,28.3385564,City/Town
Krasne,48.9138349,28.401306,City/Town
Pyliava,49.0723065,28.5242844,City/Town
Rakhny-Polovi,48.915094,28.5049214,City/Town
Pyrohiv,48.9076873,28.4772531,City/Town
Selyshche,49.1391574,28.3469752,City/Town
Urozhaine,49.141316,28.3882304,City/Town
Slidy,48.8138705,28.5154945,City/Town
Strointsi,48.9084214,28.298981,City/Town
Trostianets,49.0940248,28.6091036,City/Town
Uiaryntsi,48.8640242,28.4798214,City/Town
Cheremoshne,48.9563439,28.41687,City/Town
Shenderiv,49.0527389,28.6386285,City/Town
Potush,49.0275984,28.6516717,City/Town
Shershni,49.024606,28.43381,City/Town
Huta-Shershnivska,49.0300484,28.4544239,City/Town
Yaryshivka,49.1224205,28.461206,City/Town
Lany,49.1530223,28.4066857,City/Town
Studenytsia,49.136088,28.4279586,City/Town
Berezna,49.5615817,27.845672,City/Town
Krupyn,49.5767111,27.8183062,City/Town
Chudynivtsi,49.5472248,27.8204097,City/Town
Velykyi Mytnyk,49.5901897,28.0113328,City/Town
Budkiv,49.5776306,27.9670991,City/Town
Kushelivka,49.6258808,27.9780712,City/Town
Malyi Mytnyk,49.5822465,27.9945927,City/Town
Filiopil,49.5837224,28.0402861,City/Town
Velykyi Ostrozhok,49.7102649,28.2706001,City/Town
Vyshenka,49.719952,28.3676864,City/Town
Malyi Ostrozhok,49.6862469,28.3125414,City/Town
Chervonyi Step,49.7403758,28.3707974,City/Town
Holodky,49.5232352,27.9755807,City/Town
Stara Huta,49.5002905,27.9652987,City/Town
Viitivtsi,49.6276009,27.886008,City/Town
Dibrivka,49.5888683,27.9262225,City/Town
Olhyne,49.6261547,27.8535702,City/Town
Kachanivka,49.6394289,27.9020435,City/Town
Semky,49.6569055,27.9130962,City/Town
Kryvoshyi,49.5918718,28.2085466,City/Town
Kolybabyntsi,49.5563438,28.1945534,City/Town
Kropyvna,49.7647711,28.3052837,City/Town
Klitenka,49.7767799,28.345431,City/Town
Stupnyk,49.7446701,28.280487,City/Town
Kryzhanivka,49.7107647,28.4230503,City/Town
Osychna,49.715472,28.4409773,City/Town
Sloboda-Kustovetska,49.7114461,28.3976393,City/Town
Kumanivtsi,49.5950344,27.8067302,City/Town
Kustivtsi,49.6458608,28.3617738,City/Town
Kustovetske,49.6822917,28.3775417,City/Town
Rohyntsi,49.6255927,28.3086648,City/Town
Lelitka,49.5515379,27.9038653,City/Town
Verbivka,49.534445,27.9106258,City/Town
Krutniv,49.5543615,27.8734424,City/Town
Lypiatyn,49.7495487,28.088372,City/Town
Morozivka,49.7178554,28.0888412,City/Town
Chesnivka,49.7498085,28.1227992,City/Town
Lozna,49.6561889,28.2244321,City/Town
Dubyna,49.6459648,28.2619619,City/Town
Khutory-Kryvoshyinetski,49.6204357,28.1920427,City/Town
Lozova,49.5155364,27.8391647,City/Town
Vuhly,49.521699,27.8882948,City/Town
Huli,49.5112551,27.7402685,City/Town
Dumenky,49.52505,27.7939259,City/Town
Pedosy,49.499474,27.8475876,City/Town
Markushi,49.6745477,28.0220231,City/Town
Mytyntsi,49.6746516,27.9644176,City/Town
Marianivka,49.7350823,27.8956499,City/Town
Lisohirka,49.7603242,27.8979759,City/Town
Volodymyrivka,49.7332681,27.838104,City/Town
Petrykivtsi,49.7541456,28.1965568,City/Town
Podorozhnia,49.7943321,28.259033,City/Town
Smila,49.7791869,28.164408,City/Town
Poryk,49.5119092,28.1226725,City/Town
Kurylivka,49.5016937,28.0810038,City/Town
Tomashpil,49.5390222,28.1310269,City/Town
Pustoviity,49.6393178,28.1037629,City/Town
Zozulyntsi,49.64454,28.0634807,City/Town
Cherniatyntsi,49.6398684,28.1672079,City/Town
Rybchyntsi,49.6828107,28.0855382,City/Town
Salnytsia,49.7362398,28.0088019,City/Town
Hnativka,49.7692373,28.0019914,City/Town
Somaky,49.6100701,28.1430602,City/Town
Bilyi Rukav,49.6073566,28.0973153,City/Town
Serbanivka,49.5905473,28.1280852,City/Town
Skarzhyntsi,49.7056726,27.9402605,City/Town
Sokolova,49.5689329,27.8968661,City/Town
Sulkivka,49.6940337,27.8731846,City/Town
Nova Sulkivka,49.7174273,27.8305173,City/Town
Torchyn,49.6942051,27.9177423,City/Town
Tereshpil,49.6841869,27.7966283,City/Town
Derzhanivka,49.6942821,27.7978768,City/Town
Sofiivka,49.6849786,27.7849103,City/Town
Ukrainske,49.6557224,27.8198061,City/Town
Ulaniv,49.6925214,28.1321943,City/Town
Voronivtsi,49.6738448,28.1657731,City/Town
Pahurtsi,49.6979153,28.1813184,City/Town
Tarasky,49.7059561,28.2239553,City/Town
Chepeli,49.7201122,28.2319702,City/Town
Shyroka Hreblia,49.5325109,28.0144976,City/Town
Chernivtsi,48.5496621,28.1132815,City/Town
Yosypivka,48.5189932,28.0701803,City/Town
Babchyntsi,48.4155044,28.1539828,City/Town
Vazluivka,48.461272,28.15009,City/Town
Hamulivka,48.3872305,28.1115806,City/Town
Maiorshchyna,48.4498498,28.1198844,City/Town
Nove Zhyttia,48.3784197,28.1702264,City/Town
Biliany,48.6277462,28.0100334,City/Town
Berezivka,48.5952272,28.1119554,City/Town
Luzhok,48.5807907,28.1077584,City/Town
Borivka,48.509072,28.2561704,City/Town
Stepok,48.5314068,28.2902231,City/Town
Traktove,48.5315552,28.25547,City/Town
Vyla-Yaruzki,48.4429658,28.0388434,City/Town
Bukatynka,48.4242594,28.0219312,City/Town
Volodiivtsi,48.5730951,28.2176701,City/Town
Pelynivka,48.5536448,28.2672311,City/Town
Yasne,48.5919505,28.2332855,City/Town
Hontivka,48.5437525,28.0114297,City/Town
Vyshneve,48.5592097,27.9809482,City/Town
Kaminske,48.5267228,28.0049011,City/Town
Kotlubaivka,48.5199075,27.966732,City/Town
Lozove,48.5146256,28.0351974,City/Town
Kosy,48.4707361,28.0155109,City/Town
Skalopil,48.4934998,28.0593797,City/Town
Mazurivka,48.5331987,28.145684,City/Town
Abramivska Dolyna,48.5143387,28.1088294,City/Town
Vesniane,48.4760778,28.1030054,City/Town
Hrabovets,48.4988982,28.1742633,City/Town
Romashka,48.4930424,28.0991143,City/Town
Skoriachyi Yar,48.4712311,28.0806601,City/Town
Tuliiv,48.508705,28.1989801,City/Town
